address,checkins,city,country,created,icon,latitude,longitude,pid,title,type,updated
Мячковский б-р 3а,435.0,1.0,1.0,1280741941.0,https://vk.com/images/places/clubs.png,55.657941,37.751574,1.0,Baila Baila,4.0,1487519142.0
Дачная 2а,14.0,123.0,1.0,1280741941.0,https://vk.com/images/places/clubs.png,53.202017,50.141377,2.0,Lust,4.0,1483478197.0
Лени Голикова 29,8.0,2.0,1.0,1280741941.0,https://vk.com/images/places/clubs.png,59.843376,30.23148,3.0,Тайфун,4.0,1486398333.0
Героев Танкограда 63,8.0,158.0,1.0,1280741941.0,https://vk.com/images/places/clubs.png,55.174954,61.451611,4.0,Hollywood,4.0,1470157376.0
Мусы Джалиля 14К1,38.0,99.0,1.0,1280741941.0,https://vk.com/images/places/clubs.png,54.860834,83.091932,5.0,Барабас,4.0,1488719884.0
Мусы Джалиля 14,6.0,99.0,1.0,1280741941.0,https://vk.com/images/places/clubs.png,54.861114,83.091415,6.0,Опера,4.0,1471622459.0
Труда 153,15.0,158.0,1.0,1280741941.0,https://vk.com/images/places/clubs.png,55.166948,61.395017,7.0,Малахит,4.0,1470755251.0
Сони Кривой 81,3.0,158.0,1.0,1280741941.0,https://vk.com/images/places/clubs.png,55.157006,61.365395,8.0,Полет,4.0,1455942973.0
просп. Ленина 66а,161.0,158.0,1.0,1280741941.0,https://vk.com/images/places/clubs.png,55.160365,61.380302,9.0,Уральские пельмени,4.0,1488790394.0
Гурьянова 31,13.0,1.0,1.0,1280741941.0,https://vk.com/images/places/clubs.png,55.684858,37.7183,10.0,Salvador Dali,4.0,1445916103.0
Энгельса 1К1,1.0,99.0,1.0,1280741941.0,https://vk.com/images/places/clubs.png,54.871906,83.106557,11.0,Четыре комнаты,4.0,1485185205.0
Железноводская 68,3.0,2.0,1.0,1280741941.0,https://vk.com/images/places/clubs.png,59.949213,30.234373,12.0,Занзибар,4.0,1464970951.0
ул.Красная 24,2.0,2.0,1.0,1280741941.0,https://vk.com/images/places/clubs.png,59.960462,30.286592,13.0,Проект,4.0,1424342052.0
Полтавская 7,3.0,2.0,1.0,1280741941.0,https://vk.com/images/places/clubs.png,59.92672,30.368536,14.0,La,4.0,1443370445.0
2-я Брестская 6,5.0,1.0,1.0,1280741941.0,https://vk.com/images/places/clubs.png,55.770968,37.591562,15.0,Моспроект,4.0,1444136906.0
2-ая Боровая 11б,4.0,10.0,1.0,1280741941.0,https://vk.com/images/places/clubs.png,48.721596,44.535346,16.0,Зажигалка,4.0,1487744022.0
Мира 23,2.0,49.0,1.0,1280741941.0,https://vk.com/images/places/clubs.png,56.840941,60.652137,17.0,Центр мира,4.0,1484292974.0
Московский проспект 20,6.0,99.0,1.0,1280741941.0,https://vk.com/images/places/clubs.png,55.029394,82.933293,18.0,The Past Pavilion,4.0,1408181395.0
Ланское ш. 15,20.0,2.0,1.0,1280741941.0,https://vk.com/images/places/clubs.png,59.991147,30.307604,19.0,Вертеп Карабаса Барабаса,4.0,1483213887.0
Лубянский пр. 25К1,0.0,1.0,1.0,1280741941.0,https://vk.com/images/places/clubs.png,55.757116,37.63146,20.0,Дом Кукера,4.0,1344699423.0
Литейный пр. ,8.0,158.0,1.0,1280741941.0,https://vk.com/images/places/clubs.png,55.151862,61.304467,21.0,Летняя веранда Geometria,4.0,1400922818.0
Новослободская 26,2.0,1.0,1.0,1280741941.0,https://vk.com/images/places/clubs.png,55.783104,37.598025,22.0,Хроника-бар,4.0,1398172658.0
Черноморская 37а,0.0,72.0,1.0,1280741941.0,https://vk.com/images/places/clubs.png,45.030744,39.107527,23.0,Какаду,4.0,1432388193.0
ская 208,0.0,72.0,1.0,1280741941.0,https://vk.com/images/places/clubs.png,55.676783,37.762449,24.0,СУ-27,4.0,1449301456.0
Богданова 138,5.0,72.0,1.0,1280741941.0,https://vk.com/images/places/clubs.png,45.020991,39.000241,25.0,Кокос,4.0,1450843425.0
Северная 620,6.0,72.0,1.0,1280741941.0,https://vk.com/images/places/clubs.png,45.039534,38.979894,26.0,Распутин,4.0,1347860252.0
Мира 1б,1.0,151.0,1.0,1280741941.0,https://vk.com/images/places/clubs.png,54.813967,56.059096,27.0,Goldy,4.0,1480202182.0
1-я Останкинская 23,4.0,1.0,1.0,1280741941.0,https://vk.com/images/places/clubs.png,55.82439,37.622387,28.0,Club 23,4.0,1478494262.0
Ленина 119,1.0,49.0,1.0,1280741941.0,https://vk.com/images/places/clubs.png,56.839774,60.615122,29.0,Камелот,4.0,1375732133.0
ул. 8 Марта 13,5.0,49.0,1.0,1280741941.0,https://vk.com/images/places/clubs.png,56.83615,60.600448,30.0,Down Town,4.0,1348161178.0
Кирова 113К2,5.0,99.0,1.0,1280741941.0,https://vk.com/images/places/clubs.png,55.013007,82.954521,31.0,Небо,4.0,1485262239.0
Щелковское ш. 5,3.0,1.0,1.0,1280741941.0,https://vk.com/images/places/clubs.png,55.80402,37.755266,32.0,Каста,4.0,1476629730.0
Зеленодольская 43,9.0,1.0,1.0,1280741941.0,https://vk.com/images/places/clubs.png,55.702617,37.766585,33.0,Campanello,4.0,1418312932.0
 15,17.0,1.0,1.0,1280741941.0,https://vk.com/images/places/clubs.png,55.930433,37.852652,34.0,Atoll,4.0,1487145750.0
Покровка 18К18,49.0,1.0,1.0,1280741941.0,https://vk.com/images/places/clubs.png,55.758808,37.646435,35.0,Карибы,4.0,1464394100.0
наб. Мартынова 94,11.0,2.0,1.0,1280741941.0,https://vk.com/images/places/clubs.png,59.975815,30.245647,36.0,RT-1,4.0,1431799139.0
пр. Большевиков 59б,3.0,123.0,1.0,1280741941.0,https://vk.com/images/places/clubs.png,53.211897,50.209922,37.0,Золотая чаша,4.0,1484323377.0
М. Сухаревская пл. 70а,2.0,57.0,1.0,1280741941.0,https://vk.com/images/places/clubs.png,52.342141,104.213358,38.0,Barracuda,4.0,1469999342.0
Кастанаевская 38,3.0,1.0,1.0,1280741941.0,https://vk.com/images/places/clubs.png,55.73587,37.479627,39.0,Стрела,4.0,1427931040.0
7-й Северный Форт ,0.0,57.0,1.0,1280741941.0,https://vk.com/images/places/clubs.png,52.313021,104.27568,40.0,Leto Project,4.0,
новочеркасский 29К1,176.0,1.0,1.0,1280741941.0,https://vk.com/images/places/clubs.png,55.653665,37.76672,41.0,Жажда,4.0,1488936401.0
Ланское шоссе 48,0.0,42.0,1.0,1280741941.0,https://vk.com/images/places/clubs.png,51.680157,39.175467,42.0,Tarantul,4.0,1352796109.0
Комсомольская 2,12.0,151.0,1.0,1280741941.0,https://vk.com/images/places/clubs.png,54.737465,55.990797,43.0,Sova,4.0,1487875573.0
просп. Мира 119,4.0,1.0,1.0,1280741941.0,https://vk.com/images/places/clubs.png,55.828703,37.633688,44.0,M-Club,4.0,1343241861.0
просп. Мира 150,13.0,1.0,1.0,1280741941.0,https://vk.com/images/places/clubs.png,55.822463,37.646768,45.0,Happyland,4.0,1477952343.0
Маяковского 65К1,65.0,1.0,1.0,1280741941.0,https://vk.com/images/places/clubs.png,55.730466,37.623726,46.0,FAQ-Caf?,4.0,1450637272.0
Волков пер. 13К1,1.0,1.0,1.0,1280741941.0,https://vk.com/images/places/clubs.png,55.76365,37.574013,47.0,Все свои,4.0,1398891495.0
3-я ул. Ямского поля 15,5.0,1.0,1.0,1280741941.0,https://vk.com/images/places/clubs.png,55.782486,37.579381,48.0,Мажор Холл,4.0,1481352467.0
Попова 6,1.0,49.0,1.0,1280741941.0,https://vk.com/images/places/clubs.png,56.83617,60.592444,49.0,Tele-port,4.0,1339512172.0
Дачная 2,13.0,123.0,1.0,1280741941.0,https://vk.com/images/places/clubs.png,53.20206,50.141302,50.0,Айсберг,4.0,1489348716.0
Толмачева 12,3.0,49.0,1.0,1280741941.0,https://vk.com/images/places/clubs.png,56.838258,60.61024,51.0,Квартира,4.0,1317407641.0
Блюхера 58,7.0,49.0,1.0,1280741941.0,https://vk.com/images/places/clubs.png,56.846095,60.632455,52.0,F1,4.0,1489065837.0
Тельмана 46,4.0,72.0,1.0,1280741941.0,https://vk.com/images/places/clubs.png,45.04084,38.987512,53.0,V-Twin,4.0,1450563400.0
Большой просп. П.С. 43,4.0,2.0,1.0,1280741941.0,https://vk.com/images/places/clubs.png,59.960769,30.304882,54.0,Держись,4.0,1481833684.0
просп. Ленина 97,0.0,87.0,1.0,1280741941.0,https://vk.com/images/places/clubs.png,68.975689,33.094932,55.0,Умка,4.0,1334576477.0
Летниковская 6а,3.0,1.0,1.0,1280741941.0,https://vk.com/images/places/clubs.png,55.726056,37.644585,56.0,Восточный дом,4.0,1476253334.0
Холодильный пер. 3,52.0,1.0,1.0,1280741941.0,https://vk.com/images/places/clubs.png,55.708917,37.625451,57.0,Tuning Hall,4.0,1478730326.0
Первомайская ул. 16,0.0,49.0,1.0,1280741941.0,https://vk.com/images/places/clubs.png,56.817774,60.676729,58.0,PV,4.0,1337959046.0
Б.Никитская 19К13,0.0,1.0,1.0,1280741941.0,https://vk.com/images/places/clubs.png,55.756974,37.600963,59.0,Blues Time,4.0,
Паустовского 8К1,9.0,1.0,1.0,1280741941.0,https://vk.com/images/places/clubs.png,55.599072,37.538373,60.0,Икенга,4.0,1444593384.0
Санкт-Петербургскийский 6,0.0,158.0,1.0,1280741941.0,https://vk.com/images/places/clubs.png,55.157428,61.394918,61.0,Sugar Free,4.0,1408264235.0
Московский просп. 97,1.0,2.0,1.0,1280741941.0,https://vk.com/images/places/clubs.png,59.893231,30.317243,62.0,Моссoncert,4.0,1464604059.0
Новопесчаная 12,9.0,1.0,1.0,1280741941.0,https://vk.com/images/places/clubs.png,55.798849,37.513233,63.0,Питер,4.0,1487458011.0
Берсеневская наб. 6К3,14.0,1.0,1.0,1280741941.0,https://vk.com/images/places/clubs.png,55.740603,37.609254,64.0,Палитра,4.0,1387435202.0
Театральный пр. 3К3,80.0,1.0,1.0,1280741941.0,https://vk.com/images/places/clubs.png,55.759993,37.622603,65.0,Мастерская,4.0,1474554797.0
Новослободская 46,2.0,1.0,1.0,1280741941.0,https://vk.com/images/places/clubs.png,55.785792,37.595609,66.0,Рэй,4.0,1350145859.0
Донская 15,4.0,1.0,1.0,1280741941.0,https://vk.com/images/places/clubs.png,55.723693,37.608113,67.0,Newton Bar,4.0,1408196873.0
Вавилова 65,9.0,1.0,1.0,1280741941.0,https://vk.com/images/places/clubs.png,55.684655,37.554394,68.0,X.O.,4.0,1463143649.0
Дзержинского 98а,3.0,134.0,1.0,1280741941.0,https://vk.com/images/places/clubs.png,45.044998,41.978031,69.0,Live city dance hall,4.0,1461591668.0
Ломоносова 72К2,0.0,72.0,1.0,1280741941.0,https://vk.com/images/places/clubs.png,45.022074,38.979418,70.0,Караганда,4.0,1347262494.0
Стартовая 19а,4.0,483.0,1.0,1280741941.0,https://vk.com/images/places/clubs.png,55.837879,37.300431,71.0,Пятница,4.0,1465751310.0
Подзеленье ,82.0,169.0,1.0,1280741941.0,https://vk.com/images/places/clubs.png,57.621166,39.897002,72.0,Мед,4.0,1482030724.0
Дачная 2,31.0,123.0,1.0,1280741941.0,https://vk.com/images/places/clubs.png,53.201974,50.141302,73.0,Оперетта,4.0,1402788034.0
Комендантский 47,21.0,2.0,1.0,1280741941.0,https://vk.com/images/places/clubs.png,59.89973,30.289799,74.0,Place,4.0,1487878373.0
Токарей 24,1.0,49.0,1.0,1280741941.0,https://vk.com/images/places/clubs.png,56.837957,60.561362,75.0,Mixx,4.0,1412055932.0
Профессора Баранова 34,1.0,61.0,1.0,1280741941.0,https://vk.com/images/places/clubs.png,54.721312,20.510802,76.0,Moon,4.0,1350827048.0
Металлистов 10,10.0,49.0,1.0,1280741941.0,https://vk.com/images/places/clubs.png,56.810847,61.331191,77.0,Riviera,4.0,1448539284.0
Большая Монетная 7,6.0,1.0,1.0,1280741941.0,https://vk.com/images/places/clubs.png,55.725706,37.673457,78.0,Tabula Rasa,4.0,1440187616.0
Профсоюзная 27К1,2.0,1.0,1.0,1280741941.0,https://vk.com/images/places/clubs.png,55.673869,37.559505,79.0,Джазман,4.0,1469052377.0
Опалихинская 15,0.0,49.0,1.0,1280741941.0,https://vk.com/images/places/clubs.png,56.848699,60.564452,80.0,City,4.0,1422889469.0
ул. Казанская 7,0.0,2.0,1.0,1280741941.0,https://vk.com/images/places/clubs.png,59.933519,30.323863,81.0,Kvartal,4.0,1343684308.0
Куйбышева 4,0.0,110.0,1.0,1280741941.0,https://vk.com/images/places/clubs.png,58.014536,56.232632,82.0,Loco,4.0,
Гоголя 1,8.0,112.0,1.0,1280741941.0,https://vk.com/images/places/clubs.png,61.783937,34.366201,83.0,"""Barcelona"" Cafe-Bar-Club",4.0,1389215639.0
промзона 1а,1.0,95.0,1.0,1280741941.0,https://vk.com/images/places/clubs.png,56.34282,43.835082,84.0,Рим,4.0,1353399862.0
М.Бронная 10,1.0,1.0,1.0,1280741941.0,https://vk.com/images/places/clubs.png,55.760722,37.596669,85.0,Rush,4.0,1391184609.0
Ниж.Сусальный пер. 5К15а,10.0,1.0,1.0,1280741941.0,https://vk.com/images/places/clubs.png,55.76129,37.663068,86.0,Воздух,4.0,1351503991.0
Таганская 2,2.0,1.0,1.0,1280741941.0,https://vk.com/images/places/clubs.png,55.73549,37.616953,87.0,Mixtura,4.0,1354090093.0
просп. Энгельса 154,0.0,2.0,1.0,1280741941.0,https://vk.com/images/places/clubs.png,60.058668,30.336112,88.0,Запой,4.0,
Крымский вал 3К2,4.0,1.0,1.0,1280741941.0,https://vk.com/images/places/clubs.png,55.72927,37.609124,89.0,Pridebar,4.0,1447351752.0
Б.Златоустинский пер. 7,75.0,1.0,1.0,1280741941.0,https://vk.com/images/places/clubs.png,55.758686,37.632768,90.0,Bourbon Street,4.0,1487360669.0
М.Посадская 19,1.0,2.0,1.0,1280741941.0,https://vk.com/images/places/clubs.png,59.957859,30.330169,91.0,Антресоль,4.0,1365719750.0
1-й Смоленский пер. 3,4.0,1.0,1.0,1280741941.0,https://vk.com/images/places/clubs.png,55.746608,37.57969,92.0,Mafia,4.0,1353429568.0
Новозаводская 27,9.0,1.0,1.0,1280741941.0,https://vk.com/images/places/clubs.png,55.749729,37.498788,93.0,Главклуб,4.0,1440799301.0
Земляной Вал 75,24.0,1.0,1.0,1280741941.0,https://vk.com/images/places/clubs.png,55.745985,37.655975,94.0,Double Bourbon,4.0,1488996719.0
Баррикадная 5,10.0,859.0,1.0,1280741941.0,https://vk.com/images/places/clubs.png,55.910276,37.856758,95.0,The Best Club,4.0,1485000981.0
Таганская пл. 20К13,0.0,1.0,1.0,1280741941.0,https://vk.com/images/places/clubs.png,55.7664,37.667137,96.0,Studio 54,4.0,
пл. Ломоносова 2К4,0.0,57.0,1.0,1280741941.0,https://vk.com/images/places/clubs.png,52.262714,104.241476,97.0,Полигон,4.0,1343052876.0
Паустовского 8К1,8.0,1.0,1.0,1280741941.0,https://vk.com/images/places/clubs.png,55.599072,37.538273,98.0,Шпилька,4.0,1423505049.0
Дубининская 69,2.0,1.0,1.0,1280741941.0,https://vk.com/images/places/clubs.png,55.714921,37.634502,99.0,Serebro,4.0,1460235700.0
просп. Испытателей 26К2,14.0,2.0,1.0,1280741941.0,https://vk.com/images/places/clubs.png,60.005873,30.269416,100.0,Vinyl Story Club,4.0,1439145994.0
Хорошевское ш. 39,10.0,1.0,1.0,1280741941.0,https://vk.com/images/places/clubs.png,55.777282,37.513682,101.0,Закрома Родины,4.0,1486991368.0
Волгоградский пр. 6К1,2.0,1.0,1.0,1280741941.0,https://vk.com/images/places/clubs.png,55.819257,37.564918,102.0,Shambor,4.0,1429364458.0
Красная 174,6.0,72.0,1.0,1280741941.0,https://vk.com/images/places/clubs.png,45.044215,38.978466,103.0,Infiniti,4.0,1406984147.0
Пестеля 7,10.0,2.0,1.0,1280741941.0,https://vk.com/images/places/clubs.png,59.94188,30.341479,104.0,Китайский летчик Джао Да,4.0,1352833107.0
Тимирязевская 11,0.0,1.0,1.0,1280741941.0,https://vk.com/images/places/clubs.png,55.598843,37.516171,105.0,Dark Woods,4.0,1280943098.0
Бутырский Вал 5,17.0,1.0,1.0,1280741941.0,https://vk.com/images/places/clubs.png,55.779474,37.58526,106.0,Жара,4.0,1367524324.0
Декабристов 81,2.0,60.0,1.0,1280741941.0,https://vk.com/images/places/clubs.png,55.818523,49.092239,107.0,Neo Territory,4.0,1427264345.0
Полярные Зори 51К33,0.0,87.0,1.0,1280741941.0,https://vk.com/images/places/clubs.png,67.374576,32.503702,108.0,Декабрь,4.0,
Комсомольская пл. 89,0.0,123.0,1.0,1280741941.0,https://vk.com/images/places/clubs.png,53.215343,50.24581,109.0,Движение,4.0,1439476666.0
просп. Гагарина 29,5.0,95.0,1.0,1280741941.0,https://vk.com/images/places/clubs.png,56.292438,43.979845,110.0,Затерянный рай,4.0,1408089250.0
М.Дмитровка 23К15,0.0,1.0,1.0,1280741941.0,https://vk.com/images/places/clubs.png,55.770578,37.604915,111.0,Синяя птица,4.0,1439145999.0
просп. Ленина 46,0.0,146.0,1.0,1280741941.0,https://vk.com/images/places/clubs.png,54.184551,37.607601,112.0,Анастасия,4.0,1484314176.0
Кадашевская наб. 6К1,29.0,1.0,1.0,1280741941.0,https://vk.com/images/places/clubs.png,55.742833,37.617186,113.0,Третьяков,4.0,1399641889.0
просп. Победы 168,5.0,158.0,1.0,1280741941.0,https://vk.com/images/places/clubs.png,55.184896,61.399338,114.0,Такси-блюз,4.0,1420577614.0
Рабоче-Крестьянская 2К1,4.0,10.0,1.0,1280741941.0,https://vk.com/images/places/clubs.png,48.699629,44.503815,115.0,Калипсо,4.0,1476551882.0
М.Сухаревская пл. К38,5.0,1.0,1.0,1280741941.0,https://vk.com/images/places/clubs.png,55.785017,37.53287,116.0,Арсенал,4.0,1431089197.0
Мясницкая 13,0.0,1.0,1.0,1280741941.0,https://vk.com/images/places/clubs.png,55.762449,37.632395,117.0,Вос-дух,4.0,1354178187.0
Карла Маркса 68,2.0,42.0,1.0,1280741941.0,https://vk.com/images/places/clubs.png,51.663663,39.206297,118.0,Bit Town,4.0,1335199529.0
Красная 139,2.0,72.0,1.0,1280741941.0,https://vk.com/images/places/clubs.png,45.044979,38.977029,119.0,Барсук,4.0,1418831110.0
Энгельса 107,3.0,158.0,1.0,1280741941.0,https://vk.com/images/places/clubs.png,55.148765,61.381075,120.0,Парк,4.0,1415599933.0
Красная 36,8.0,112.0,1.0,1280741941.0,https://vk.com/images/places/clubs.png,61.789079,34.353688,121.0,Контакт,4.0,1481130988.0
Ставропольская 12,36.0,112.0,1.0,1280741941.0,https://vk.com/images/places/clubs.png,61.810098,34.332272,122.0,Территория,4.0,1458425503.0
Новокузнецкая 59а,3.0,158.0,1.0,1280741941.0,https://vk.com/images/places/clubs.png,55.162947,61.389232,123.0,Монте-Карло,4.0,1481646028.0
Свободы 46,11.0,169.0,1.0,1280741941.0,https://vk.com/images/places/clubs.png,57.626034,39.869164,124.0,Старый город,4.0,1451071519.0
Сергея Макеева 9,191.0,1.0,1.0,1280741941.0,https://vk.com/images/places/clubs.png,55.761629,37.550837,125.0,Milk,4.0,1459975519.0
Рогожский Вал 6К2,3.0,1.0,1.0,1280741941.0,https://vk.com/images/places/clubs.png,55.742767,37.674526,126.0,Platina,4.0,1369337619.0
Менделеевская 2,0.0,146.0,1.0,1280741941.0,https://vk.com/images/places/clubs.png,54.191984,37.623555,127.0,Бригантина,4.0,1316065486.0
Ясная 2,1.0,49.0,1.0,1280741941.0,https://vk.com/images/places/clubs.png,56.816336,60.584691,128.0,Партия,4.0,1354719461.0
Волгоградский просп. 3,5.0,2.0,1.0,1280741941.0,https://vk.com/images/places/clubs.png,59.962944,30.412051,129.0,Free for Fun,4.0,1421259625.0
Лубянский пр. 15К2,2.0,1.0,1.0,1280741941.0,https://vk.com/images/places/clubs.png,55.756619,37.632489,130.0,Ля Мур,4.0,1485939118.0
Газеты «Звезда» 38б,3.0,110.0,1.0,1280741941.0,https://vk.com/images/places/clubs.png,58.007494,56.248559,131.0,New Star,4.0,1407073258.0
Беговая ул. 47,5.0,49.0,1.0,1280741941.0,https://vk.com/images/places/clubs.png,56.809497,60.601184,132.0,Red Cafe,4.0,1489176765.0
Маршала Казакова 13,9.0,2.0,1.0,1280741941.0,https://vk.com/images/places/clubs.png,59.860075,30.236709,133.0,Pickup Night Club,4.0,1479033081.0
Страстной б-р 8а,8.0,1.0,1.0,1280741941.0,https://vk.com/images/places/clubs.png,55.766258,37.610867,134.0,Babуlon Private Club,4.0,1389480417.0
Летниковская 11К10,124.0,1.0,1.0,1280741941.0,https://vk.com/images/places/clubs.png,55.724545,37.646372,135.0,Форум холл,4.0,1479193606.0
Малышева 3К2,13.0,1.0,1.0,1280741941.0,https://vk.com/images/places/clubs.png,55.701957,37.742735,136.0,От заката до рассвета,4.0,1489094464.0
Комсомольский просп. 28,1.0,1.0,1.0,1280741941.0,https://vk.com/images/places/clubs.png,55.727019,37.579681,137.0,Maska,4.0,1353173698.0
Газетный пер. 84,2.0,119.0,1.0,1280741941.0,https://vk.com/images/places/clubs.png,47.2272,39.714105,138.0,Асмолов,4.0,1415977754.0
факс)Новопесчаная 233б,3.0,119.0,1.0,1280741941.0,https://vk.com/images/places/clubs.png,47.234941,39.732162,139.0,Камасутра,4.0,1437782011.0
Лиговский просп. 50К13,8.0,2.0,1.0,1280741941.0,https://vk.com/images/places/clubs.png,59.925259,30.358139,140.0,Jesus,4.0,1390481354.0
Бауманская 5,18.0,625.0,1.0,1280741941.0,https://vk.com/images/places/clubs.png,56.344391,37.510628,141.0,Гелиос,4.0,1422006152.0
пл. Киевского Вокзала 2,64.0,1.0,1.0,1280741941.0,https://vk.com/images/places/clubs.png,55.74449,37.566302,142.0,Face,4.0,1479829094.0
Московская 75,64.0,78.0,1.0,1280741941.0,https://vk.com/images/places/clubs.png,52.608197,39.532349,143.0,Мегаполис,4.0,1489465446.0
Кузнецкий мост 3,3.0,1.0,1.0,1280741941.0,https://vk.com/images/places/clubs.png,55.761224,37.616575,144.0,Shelter,4.0,1458486877.0
Школьная 21,3.0,1.0,1.0,1280741941.0,https://vk.com/images/places/clubs.png,55.745808,37.672109,145.0,Old Street,4.0,1415890476.0
Усиевича 12К14,0.0,1.0,1.0,1280741941.0,https://vk.com/images/places/clubs.png,55.806267,37.528285,146.0,Manhattan,4.0,1421991528.0
Братиславская ,14.0,158.0,1.0,1280741941.0,https://vk.com/images/places/clubs.png,55.070035,60.107668,147.0,Van Gogh,4.0,1469622901.0
просп. Испытателей ,1.0,2.0,1.0,1280741941.0,https://vk.com/images/places/clubs.png,60.004586,30.285519,148.0,Malina,4.0,1345534546.0
Невский просп. 32К34,4.0,2.0,1.0,1280741941.0,https://vk.com/images/places/clubs.png,59.935534,30.328561,149.0,RAFINAD,4.0,1351964889.0
Республиканская 3К4,95.0,169.0,1.0,1280741941.0,https://vk.com/images/places/clubs.png,57.640084,39.885908,150.0,Король Королю,4.0,1477686741.0
Гоголя 15,135.0,99.0,1.0,1280741941.0,https://vk.com/images/places/clubs.png,55.043154,82.92405,151.0,Изюм,4.0,1489178710.0
Подольская 21,4.0,60.0,1.0,1280741941.0,https://vk.com/images/places/clubs.png,55.786764,49.122903,152.0,Тихое место,4.0,1351930904.0
Октябрьская 35,35.0,99.0,1.0,1280741941.0,https://vk.com/images/places/clubs.png,55.025003,82.919019,153.0,Rublev Bar,4.0,1463735379.0
добавочный 1а,5.0,42.0,1.0,1280741941.0,https://vk.com/images/places/clubs.png,51.653282,39.174568,154.0,Black and White,4.0,1355670999.0
Декабристов пл. 10,12.0,1.0,1.0,1280741941.0,https://vk.com/images/places/clubs.png,55.764085,37.487335,155.0,Бульвар,4.0,1488609928.0
наб. Большой Невки 10,13.0,110.0,1.0,1280741941.0,https://vk.com/images/places/clubs.png,58.008052,56.183863,156.0,Студклуб ПГУ,4.0,1475246364.0
Жуковского 102,43.0,99.0,1.0,1280741941.0,https://vk.com/images/places/clubs.png,55.0619,82.891297,157.0,Танцуки,4.0,1487499618.0
Верхний ,6.0,99.0,1.0,1280741941.0,https://vk.com/images/places/clubs.png,55.04157,82.934075,158.0,Красная площадь,4.0,1486620121.0
Ленинградский просп. 31,763.0,1.0,1.0,1280741941.0,https://vk.com/images/places/clubs.png,55.785994,37.559056,159.0,Arena Moscow,4.0,1484762691.0
выборгская 14,3.0,1.0,1.0,1280741941.0,https://vk.com/images/places/clubs.png,55.752242,37.633167,160.0,Лед,4.0,1354388918.0
Комендантский просп. 271,10.0,2.0,1.0,1280741941.0,https://vk.com/images/places/clubs.png,60.018425,30.24845,161.0,Take Five,4.0,1466759190.0
Забелина 1,3.0,1.0,1.0,1280741941.0,https://vk.com/images/places/clubs.png,55.754466,37.637367,162.0,Подвал на Солянке,4.0,1456810987.0
Петрозаводская 22,0.0,1.0,1.0,1280741941.0,https://vk.com/images/places/clubs.png,55.77716,37.565003,163.0,Times,4.0,1351286838.0
Липецкая 10,2.0,133.0,1.0,1280741941.0,https://vk.com/images/places/clubs.png,43.605614,39.715731,164.0,Agava,4.0,1435967164.0
Красных Партизан 204,1.0,72.0,1.0,1280741941.0,https://vk.com/images/places/clubs.png,45.049666,38.964848,165.0,Chicago,4.0,1415469012.0
Шпалерная 24,0.0,2.0,1.0,1280741941.0,https://vk.com/images/places/clubs.png,59.94946,30.350902,166.0,Пегас,4.0,1342913520.0
наб. канала Грибоедова 7,3.0,2.0,1.0,1280741941.0,https://vk.com/images/places/clubs.png,59.938982,30.327381,167.0,Бархат,4.0,1347703068.0
Тушинская ,9.0,146.0,1.0,1280741941.0,https://vk.com/images/places/clubs.png,54.190994,37.612757,168.0,Комплекс «Карамболь»,4.0,1455323799.0
Щукинская ,0.0,146.0,1.0,1280741941.0,https://vk.com/images/places/clubs.png,54.18846,37.681146,169.0,Петушки,4.0,
Д Ульянова 23,2.0,146.0,1.0,1280741941.0,https://vk.com/images/places/clubs.png,54.191747,37.584496,170.0,Бавария,4.0,1395998806.0
Ломоносовский пр. 5,7.0,146.0,1.0,1280741941.0,https://vk.com/images/places/clubs.png,54.511823,37.0514,171.0,Summer Club,4.0,1470776262.0
просп. Ленина 82,4.0,87.0,1.0,1280741941.0,https://vk.com/images/places/clubs.png,68.971302,33.077546,172.0,The Centre,4.0,1393937860.0
Ф.Энгельса 66,4.0,146.0,1.0,1280741941.0,https://vk.com/images/places/clubs.png,54.176525,37.594081,173.0,Чили,4.0,1391970598.0
Петроградская наб. ,6.0,2.0,1.0,1280741941.0,https://vk.com/images/places/clubs.png,59.957185,30.335727,174.0,Забава-бар,4.0,1485665377.0
Садовая 11,0.0,2.0,1.0,1280741941.0,https://vk.com/images/places/clubs.png,59.935412,30.334948,175.0,Seven Rooms,4.0,1407974721.0
Комендантский просп. 9К2,1.0,2.0,1.0,1280741941.0,https://vk.com/images/places/clubs.png,60.005459,30.263398,176.0,Versailles,4.0,1359788285.0
Страстной б-р 4К3,1.0,1.0,1.0,1280741941.0,https://vk.com/images/places/clubs.png,55.764987,37.608472,177.0,Пурга,4.0,1282085350.0
Маяковскай 71,4.0,61.0,1.0,1280741941.0,https://vk.com/images/places/clubs.png,54.681373,20.482882,178.0,Подводная лодка,4.0,1481460952.0
Марата 23,0.0,2.0,1.0,1280741941.0,https://vk.com/images/places/clubs.png,59.927874,30.352537,179.0,Barry White,4.0,
Бекетова 73а,3.0,95.0,1.0,1280741941.0,https://vk.com/images/places/clubs.png,56.293857,44.03051,180.0,Звезда,4.0,1399892566.0
Лесная 23,5.0,123.0,1.0,1280741941.0,https://vk.com/images/places/clubs.png,53.213078,50.125984,181.0,Леди-Рай,4.0,1445445356.0
осковский просп 37,4.0,60.0,1.0,1280741941.0,https://vk.com/images/places/clubs.png,55.767438,49.183867,182.0,Банзай,4.0,1393077272.0
Средний просп. В.О. ,0.0,2.0,1.0,1280741941.0,https://vk.com/images/places/clubs.png,59.938725,30.263496,183.0,Dance jazz-hall,4.0,1349473207.0
Болотная наб. 9а,8.0,1.0,1.0,1280741941.0,https://vk.com/images/places/clubs.png,55.740841,37.611212,184.0,Элизиум,4.0,1385848680.0
Ворошиловский просп. 12,1.0,119.0,1.0,1280741941.0,https://vk.com/images/places/clubs.png,47.219936,39.720259,185.0,Тема,4.0,1336629565.0
Невский 2а,20.0,1463.0,1.0,1280741941.0,https://vk.com/images/places/clubs.png,55.996198,37.21696,186.0,Bell Pub,4.0,1465678951.0
Максима Горького 87,2.0,99.0,1.0,1280741941.0,https://vk.com/images/places/clubs.png,55.028068,82.928604,187.0,Оскар,4.0,1350639907.0
3-я Советская 7,1.0,2.0,1.0,1280741941.0,https://vk.com/images/places/clubs.png,59.932117,30.369471,188.0,Галар «Кампот»,4.0,1312373961.0
Невский просп. 7К9,10.0,2.0,1.0,1280741941.0,https://vk.com/images/places/clubs.png,59.936544,30.313829,189.0,Celebrity,4.0,1356192071.0
Енисейская 5К2,4.0,1.0,1.0,1280741941.0,https://vk.com/images/places/clubs.png,55.858902,37.659578,190.0,Sharhouse,4.0,1420375617.0
Мориса Тереза просп ,1.0,119.0,1.0,1280741941.0,https://vk.com/images/places/clubs.png,47.227163,39.744968,191.0,Stereo Пляж,4.0,1438717729.0
Болдина ,6.0,146.0,1.0,1280741941.0,https://vk.com/images/places/clubs.png,54.17847,37.573744,192.0,Корона,4.0,1441484463.0
Шолохова 316,16.0,119.0,1.0,1280741941.0,https://vk.com/images/places/clubs.png,47.269994,39.824239,193.0,Zoloto,4.0,1485015671.0
Моховая 11,169.0,1.0,1.0,1280741941.0,https://vk.com/images/places/clubs.png,55.756184,37.61132,194.0,Дума,4.0,1485188800.0
Садовая 28-30,7.0,2.0,1.0,1280741941.0,https://vk.com/images/places/clubs.png,59.928077,30.327645,195.0,Черт Побери!,4.0,1485482927.0
Сельскохозяйственная 15К3,0.0,1.0,1.0,1280741941.0,https://vk.com/images/places/clubs.png,55.836686,37.638144,196.0,Сирена,4.0,1381481809.0
Лесная 43,8.0,1.0,1.0,1280741941.0,https://vk.com/images/places/clubs.png,55.780709,37.590506,197.0,Поляна,4.0,1369935530.0
Чапаева 5,16.0,2.0,1.0,1280741941.0,https://vk.com/images/places/clubs.png,59.958989,30.332747,198.0,Baranka,4.0,1355643966.0
Новослободская 36К1,13.0,1.0,1.0,1280741941.0,https://vk.com/images/places/clubs.png,55.784703,37.59648,199.0,New York Bar & Lounge,4.0,1391200362.0
Заневский просп. 38,7.0,2.0,1.0,1280741941.0,https://vk.com/images/places/clubs.png,59.933,30.431427,200.0,Las Vegas,4.0,1481914239.0
Покровка 17,215.0,1.0,1.0,1280741941.0,https://vk.com/images/places/clubs.png,55.759653,37.645258,201.0,Cuba Libre,4.0,1485662302.0
Рубинштейна 13,45.0,2.0,1.0,1280741941.0,https://vk.com/images/places/clubs.png,59.929538,30.343509,202.0,Terminal,4.0,1427619600.0
Белинского 9,3.0,2.0,1.0,1280741941.0,https://vk.com/images/places/clubs.png,59.937756,30.346402,203.0,Et Cetera,4.0,1344621614.0
наб. канала Грибоедова 7,152.0,2.0,1.0,1280741941.0,https://vk.com/images/places/clubs.png,59.938982,30.327281,204.0,Акакао,4.0,1489268549.0
Красная 64,162.0,72.0,1.0,1280741941.0,https://vk.com/images/places/clubs.png,45.026616,38.971405,205.0,Сахар,4.0,1488706839.0
В. Красносельская 44а,2.0,10.0,1.0,1280741941.0,https://vk.com/images/places/clubs.png,48.808495,44.767952,206.0,Sweet Life,4.0,1423380883.0
Ниж.Сусальный пер. 5,1.0,1.0,1.0,1280741941.0,https://vk.com/images/places/clubs.png,55.761338,37.663033,207.0,Aura,4.0,1395698910.0
Ленина 8,0.0,57.0,1.0,1280741941.0,https://vk.com/images/places/clubs.png,52.28858,104.278423,208.0,Амстердам,4.0,
Рождественская 20,103.0,95.0,1.0,1280741941.0,https://vk.com/images/places/clubs.png,56.328414,43.990311,209.0,Shizgara,4.0,1489662929.0
Стасова 182,3.0,72.0,1.0,1280741941.0,https://vk.com/images/places/clubs.png,45.02982,39.046181,210.0,Улетов и Ко,4.0,1482413284.0
Коломенская 4,2.0,2.0,1.0,1280741941.0,https://vk.com/images/places/clubs.png,59.925922,30.355592,211.0,Киса,4.0,1351272633.0
Санкт-петербургское ш. 14,0.0,112.0,1.0,1280741941.0,https://vk.com/images/places/clubs.png,61.760043,34.438345,212.0,Улетай,4.0,1372967162.0
В.Первомайская 22К47,18.0,146.0,1.0,1280741941.0,https://vk.com/images/places/clubs.png,54.039296,38.258098,213.0,Nova,4.0,1391106292.0
Беговая ,0.0,146.0,1.0,1280741941.0,https://vk.com/images/places/clubs.png,54.193845,37.619003,214.0,Плетенка,4.0,
Менделеева 160,0.0,151.0,1.0,1280741941.0,https://vk.com/images/places/clubs.png,54.710402,55.966399,215.0,О2,4.0,1378032041.0
Льва Толстого 18б,9.0,1.0,1.0,1280741941.0,https://vk.com/images/places/clubs.png,55.735241,37.585368,216.0,Vodka Bar,4.0,1413094972.0
Лиговский просп. 50,11.0,2.0,1.0,1280741941.0,https://vk.com/images/places/clubs.png,59.925302,30.358064,217.0,Пьяная груша,4.0,1424124397.0
просп. Художников ,8.0,2.0,1.0,1280741941.0,https://vk.com/images/places/clubs.png,60.043296,30.349744,218.0,Вотель-Шале,4.0,1354149180.0
Большевистская 88,17.0,110.0,1.0,1280741941.0,https://vk.com/images/places/clubs.png,58.009773,56.241948,219.0,Абырвалг,4.0,1473867540.0
Грина 11б,7.0,1.0,1.0,1280741941.0,https://vk.com/images/places/clubs.png,55.566909,37.566656,220.0,Индиго,4.0,1420140995.0
Дербеневская 20,22.0,1.0,1.0,1280741941.0,https://vk.com/images/places/clubs.png,55.721594,37.647738,221.0,One Rock,4.0,1437300652.0
Кронштадтский б-р 9К3,7.0,1.0,1.0,1280741941.0,https://vk.com/images/places/clubs.png,55.84262,37.489401,222.0,Майер,4.0,1431688834.0
Садовая 12,3.0,2.0,1.0,1280741941.0,https://vk.com/images/places/clubs.png,59.935015,30.336116,223.0,BarBar,4.0,1349535443.0
Олимпийский просп. 16К1,3.0,1.0,1.0,1280741941.0,https://vk.com/images/places/clubs.png,55.78116,37.626471,224.0,Удар,4.0,1370455079.0
Чистопрудный б-р 25,3.0,1.0,1.0,1280741941.0,https://vk.com/images/places/clubs.png,55.760104,37.646875,225.0,Рублев,4.0,1468615210.0
2-я Фрунзенская ,0.0,133.0,1.0,1280741941.0,https://vk.com/images/places/clubs.png,43.582795,39.722321,226.0,Плотформа,4.0,1440867558.0
Юных Ленинцев 52,7.0,1.0,1.0,1280741941.0,https://vk.com/images/places/clubs.png,55.699786,37.76548,227.0,Visota,4.0,1455452772.0
Верности 9,30.0,2.0,1.0,1280741941.0,https://vk.com/images/places/clubs.png,60.007582,30.398594,228.0,Моцарт,4.0,1465074682.0
Бебеля 17,3.0,49.0,1.0,1280741941.0,https://vk.com/images/places/clubs.png,56.844235,60.561551,229.0,Нирвана,4.0,1489480550.0
Московский просп. 9,5.0,42.0,1.0,1280741941.0,https://vk.com/images/places/clubs.png,51.684999,39.182815,230.0,Пульс,4.0,1355599196.0
пересечение Университетской наб. и 1-й линии В.О. ,12.0,99.0,1.0,1280741941.0,https://vk.com/images/places/clubs.png,54.971636,82.881874,231.0,Sky City,4.0,1385817062.0
Тельмана 19,6.0,78.0,1.0,1280741941.0,https://vk.com/images/places/clubs.png,52.620084,39.592806,232.0,Солярис,4.0,1394281516.0
Смоленский б-р 7К1,2.0,1.0,1.0,1280741941.0,https://vk.com/images/places/clubs.png,55.73999,37.58438,233.0,JazzLife,4.0,1346087218.0
Левобережная 69,4.0,119.0,1.0,1280741941.0,https://vk.com/images/places/clubs.png,47.203917,39.76951,234.0,Загородный клуб «Калифорния SUN»,4.0,1438176665.0
Бакунинская К2,8.0,1.0,1.0,1280741941.0,https://vk.com/images/places/clubs.png,55.773191,37.679394,235.0,G-Lounge,4.0,1384041935.0
Садовая 28К13,3.0,2.0,1.0,1280741941.0,https://vk.com/images/places/clubs.png,59.930146,30.327636,236.0,City Сlub,4.0,1384806695.0
Лиговский просп. 53,91.0,2.0,1.0,1280741941.0,https://vk.com/images/places/clubs.png,59.929136,30.359379,237.0,Fish Fabrique,4.0,1488733299.0
Садовая К13,8.0,2.0,1.0,1280741941.0,https://vk.com/images/places/clubs.png,59.935051,30.335074,238.0,Money Honey,4.0,1458504857.0
Лиговский просп. 174,35.0,2.0,1.0,1280741941.0,https://vk.com/images/places/clubs.png,59.920785,30.355071,239.0,Метро,4.0,1489080402.0
Санкт-Петербургскийский просп. ,15.0,1463.0,1.0,1280741941.0,https://vk.com/images/places/clubs.png,55.984562,37.16015,240.0,Дебаркадер,4.0,1389635571.0
Б.Морская 46,1.0,2.0,1.0,1280741941.0,https://vk.com/images/places/clubs.png,59.93163,30.306418,241.0,Buddha Bar.spb,4.0,1442125441.0
Маяковская 54,0.0,49.0,1.0,1280741941.0,https://vk.com/images/places/clubs.png,56.898082,60.592408,242.0,Миллениум,4.0,1352567513.0
угол Кронверкского просп. и Крестьянского пер. 42,0.0,49.0,1.0,1280741941.0,https://vk.com/images/places/clubs.png,56.778164,60.640495,243.0,От заката до рассвета,4.0,
Толмачева 18,4.0,49.0,1.0,1280741941.0,https://vk.com/images/places/clubs.png,56.839651,60.609616,244.0,Мастер и Маргарита,4.0,1400862739.0
Литейный просп. 33,22.0,2.0,1.0,1280741941.0,https://vk.com/images/places/clubs.png,59.941042,30.347291,245.0,Jimi Hendrix Blues Club,4.0,1489084865.0
Бажова 75а,0.0,49.0,1.0,1280741941.0,https://vk.com/images/places/clubs.png,56.844284,60.626145,246.0,Золотой скорпион,4.0,1342158919.0
Зеленоградская 9,1.0,49.0,1.0,1280741941.0,https://vk.com/images/places/clubs.png,56.848798,60.61223,247.0,Атмосфера,4.0,1345134075.0
Высоцкого 14,10.0,49.0,1.0,1280741941.0,https://vk.com/images/places/clubs.png,56.841374,60.681045,248.0,Carabas,4.0,1473522646.0
Дзержинского ,6.0,49.0,1.0,1280741941.0,https://vk.com/images/places/clubs.png,56.84484,60.605892,249.0,Эльдорадо,4.0,1417534589.0
Вознесенский просп. 46,4.0,2.0,1.0,1280741941.0,https://vk.com/images/places/clubs.png,59.920754,30.308655,250.0,Луна,4.0,1352575126.0
Фурманова 109,0.0,49.0,1.0,1280741941.0,https://vk.com/images/places/clubs.png,56.813242,60.593486,251.0,Провокация,4.0,1409049751.0
Московская 29,1.0,49.0,1.0,1280741941.0,https://vk.com/images/places/clubs.png,56.837391,60.582338,252.0,Five,4.0,1344821686.0
Челюскинцев ,0.0,49.0,1.0,1280741941.0,https://vk.com/images/places/clubs.png,56.849704,60.592165,253.0,Пятый океан,4.0,
ул. 8 Марта 43,0.0,49.0,1.0,1280741941.0,https://vk.com/images/places/clubs.png,56.825936,60.604989,254.0,Антрэ,4.0,1323754052.0
Толмачева 18,0.0,49.0,1.0,1280741941.0,https://vk.com/images/places/clubs.png,56.839651,60.609516,255.0,Moloko,4.0,1462569299.0
Высоцкого 22,2.0,49.0,1.0,1280741941.0,https://vk.com/images/places/clubs.png,56.841443,60.686542,256.0,Novelty Club,4.0,1432052939.0
Пушкина 2,0.0,49.0,1.0,1280741941.0,https://vk.com/images/places/clubs.png,56.835835,60.609826,257.0,Pushkina2,4.0,1344636700.0
ул. 8 Марта 5,61.0,49.0,1.0,1280741941.0,https://vk.com/images/places/clubs.png,56.839577,60.598714,258.0,Пушкин Bar & Basement,4.0,1489347799.0
Вайнера 40,6.0,49.0,1.0,1280741941.0,https://vk.com/images/places/clubs.png,56.831403,60.595588,259.0,DaBar,4.0,1389114390.0
ул. 8 Марта 212,0.0,49.0,1.0,1280741941.0,https://vk.com/images/places/clubs.png,56.78597,60.605295,260.0,Империя страсти,4.0,1380360814.0
Первомайская 74,30.0,49.0,1.0,1280741941.0,https://vk.com/images/places/clubs.png,56.844589,60.63859,261.0,Метрополия,4.0,1489073810.0
д. Жуковка 13а,1.0,49.0,1.0,1280741941.0,https://vk.com/images/places/clubs.png,56.834461,60.676832,262.0,DJ Pub,4.0,1419837172.0
Зеленоградская 9,0.0,49.0,1.0,1280741941.0,https://vk.com/images/places/clubs.png,56.848841,60.612155,263.0,Сети,4.0,
Кантемировская 14К10,1.0,60.0,1.0,1280741941.0,https://vk.com/images/places/clubs.png,55.792969,49.113735,264.0,El Macho,4.0,1352289357.0
Баумана ,0.0,60.0,1.0,1280741941.0,https://vk.com/images/places/clubs.png,55.792893,49.110453,265.0,Три мушкетера,4.0,
Правобулачная 47а,3.0,60.0,1.0,1280741941.0,https://vk.com/images/places/clubs.png,55.786793,49.122893,266.0,Сахара,4.0,1414774654.0
Автозаводская 1,1.0,60.0,1.0,1280741941.0,https://vk.com/images/places/clubs.png,55.825386,49.043792,267.0,Мурена,4.0,1412944292.0
Московская 1а,1.0,60.0,1.0,1280741941.0,https://vk.com/images/places/clubs.png,55.793865,49.103509,268.0,Le Chat,4.0,1335295103.0
Парижской Коммуны 25К39,0.0,60.0,1.0,1280741941.0,https://vk.com/images/places/clubs.png,55.781124,49.112582,269.0,Red Fox,4.0,1347121338.0
Автозаводская 5,11.0,60.0,1.0,1280741941.0,https://vk.com/images/places/clubs.png,55.824111,49.046469,270.0,Центр клубной жизни,4.0,1472487835.0
просп. Ленина ,1.0,49.0,1.0,1280741941.0,https://vk.com/images/places/clubs.png,56.839774,60.615022,271.0,Желтая подводная лодка,4.0,1417302625.0
Тухачевского 13,1.0,134.0,1.0,1280741941.0,https://vk.com/images/places/clubs.png,45.014581,41.917412,272.0,Нил,4.0,1352378451.0
Сибирский тракт 34б,0.0,49.0,1.0,1280741941.0,https://vk.com/images/places/clubs.png,56.818558,60.66651,273.0,Небо,4.0,1414159747.0
Уральская ,0.0,49.0,1.0,1280741941.0,https://vk.com/images/places/clubs.png,56.858179,60.60105,274.0,Альбион,4.0,
Доваторцев 30б,6.0,134.0,1.0,1280741941.0,https://vk.com/images/places/clubs.png,45.026132,41.937023,275.0,Дорис,4.0,1484651790.0
Хрущевский Вал 1,3.0,60.0,1.0,1280741941.0,https://vk.com/images/places/clubs.png,55.786812,49.122868,276.0,51 Штат,4.0,1415405824.0
Ленина 293а,4.0,134.0,1.0,1280741941.0,https://vk.com/images/places/clubs.png,45.038426,41.949985,277.0,Z-клуб,4.0,1482749892.0
Пушкина 29а,3.0,60.0,1.0,1280741941.0,https://vk.com/images/places/clubs.png,55.792281,49.124529,278.0,Doctor Club,4.0,1357082029.0
Пушкина 17,7.0,60.0,1.0,1280741941.0,https://vk.com/images/places/clubs.png,55.788895,49.123392,279.0,Арена,4.0,1459817602.0
просп. Академика Сахарова 14,59.0,1.0,1.0,1280741941.0,https://vk.com/images/places/clubs.png,55.769135,37.643076,280.0,Каприз,4.0,1449885678.0
Буркова 17,0.0,87.0,1.0,1280741941.0,https://vk.com/images/places/clubs.png,68.962382,33.078664,281.0,Пирамида,4.0,1324162308.0
просп. Ленина 82,0.0,87.0,1.0,1280741941.0,https://vk.com/images/places/clubs.png,68.971345,33.077471,282.0,Планета,4.0,
Вавилова 69,7.0,1.0,1.0,1280741941.0,https://vk.com/images/places/clubs.png,55.68296,37.55151,283.0,Бакара,4.0,1395902600.0
Сходненская 2а,2.0,87.0,1.0,1280741941.0,https://vk.com/images/places/clubs.png,68.996249,33.09518,284.0,Рандеву,4.0,1414184052.0
М.Сухаревская 1,0.0,87.0,1.0,1280741941.0,https://vk.com/images/places/clubs.png,68.975005,33.080586,285.0,Седьмой континент,4.0,
Кольский просп. 27,1.0,87.0,1.0,1280741941.0,https://vk.com/images/places/clubs.png,68.944536,33.099226,286.0,Сфера,4.0,1415484449.0
Волгоградскийпросп. 2а,1.0,87.0,1.0,1280741941.0,https://vk.com/images/places/clubs.png,68.935755,33.117785,287.0,The Club,4.0,1335758681.0
Кольский просп. 130,30.0,87.0,1.0,1280741941.0,https://vk.com/images/places/clubs.png,68.921997,33.104203,288.0,Бриллиантовая рука,4.0,1484428326.0
Книповича 17,12.0,87.0,1.0,1280741941.0,https://vk.com/images/places/clubs.png,68.959655,33.077756,289.0,Ледокол,4.0,1461349301.0
Ниж.Первомайская 22,6.0,87.0,1.0,1280741941.0,https://vk.com/images/places/clubs.png,68.911082,33.085455,290.0,Гольфстрим,4.0,1488139793.0
Воровского 5К23,32.0,87.0,1.0,1280741941.0,https://vk.com/images/places/clubs.png,68.969817,33.072465,291.0,М-клуб,4.0,1483578911.0
Локомотивный ,117.0,2.0,1.0,1280741941.0,https://vk.com/images/places/clubs.png,59.981802,30.293347,292.0,Zimaleto,4.0,1478990563.0
Даниловская наб. 201,2.0,6154.0,1.0,1280741941.0,https://vk.com/images/places/clubs.png,53.529701,33.732786,293.0,Le Bateau Ivre,4.0,1348835206.0
Потаповский пер. 5К2,8.0,1.0,1.0,1280741941.0,https://vk.com/images/places/clubs.png,55.761674,37.640632,294.0,Louvre,4.0,1399915185.0
пер. Гривцова 11,10.0,2.0,1.0,1280741941.0,https://vk.com/images/places/clubs.png,59.927513,30.316174,295.0,Бардак,4.0,1382348673.0
Славянская пл. 2К1,17.0,1.0,1.0,1280741941.0,https://vk.com/images/places/clubs.png,55.75357,37.635148,296.0,"Sorry, Babushka",4.0,1401891819.0
корп. 532 7,0.0,1.0,1.0,1280741941.0,https://vk.com/images/places/clubs.png,55.787725,37.616036,297.0,In Time,4.0,1353095035.0
Ярцевская 25а,6.0,1.0,1.0,1280741941.0,https://vk.com/images/places/clubs.png,55.740999,37.415505,298.0,Юрта,4.0,1396353977.0
Казакова 8,6.0,1.0,1.0,1280741941.0,https://vk.com/images/places/clubs.png,55.76247,37.66026,299.0,Ikra,4.0,1399717554.0
М.Кисловский пер. 6,4.0,1.0,1.0,1280741941.0,https://vk.com/images/places/clubs.png,55.754735,37.603478,300.0,Подмосковье,4.0,1453722182.0
Стремянная 16,0.0,2.0,1.0,1280741941.0,https://vk.com/images/places/clubs.png,59.931093,30.352286,301.0,Жажда,4.0,1345882473.0
Б.Лубянка 13К16,4.0,1.0,1.0,1280741941.0,https://vk.com/images/places/clubs.png,55.764111,37.628855,302.0,Жесть,4.0,1451484467.0
Певческий пер. 6,1.0,1.0,1.0,1280741941.0,https://vk.com/images/places/clubs.png,55.751796,37.641719,303.0,Экспедиция,4.0,1460323135.0
дер. Жуковка 8,8.0,1.0,1.0,1280741941.0,https://vk.com/images/places/clubs.png,55.735925,37.455516,304.0,Алтайна,4.0,1352914797.0
Покровка 16К1,112.0,1.0,1.0,1280741941.0,https://vk.com/images/places/clubs.png,55.758651,37.64604,305.0,"Кафе, прежде известное как «Кризис жанра»",4.0,1488915947.0
Сергея Макеева 9К1,2.0,1.0,1.0,1280741941.0,https://vk.com/images/places/clubs.png,55.757182,37.550378,306.0,О2ТВ,4.0,1385043476.0
Минская 2г,33.0,1.0,1.0,1280741941.0,https://vk.com/images/places/clubs.png,55.734004,37.489904,307.0,Кутузов-холл,4.0,1487401318.0
Семеновская пл. ,7.0,1.0,1.0,1280741941.0,https://vk.com/images/places/clubs.png,55.832217,37.629313,308.0,Крамбамбуля,4.0,1344102306.0
24-й км Киевского ш. 6,0.0,2.0,1.0,1280741941.0,https://vk.com/images/places/clubs.png,59.915034,30.314673,309.0,Street Life,4.0,
Милютинский пер. 13,4.0,1.0,1.0,1280741941.0,https://vk.com/images/places/clubs.png,55.764921,37.63182,310.0,Hardcore,4.0,1322664436.0
Думская 9,48.0,2.0,1.0,1280741941.0,https://vk.com/images/places/clubs.png,59.932842,30.327445,311.0,Улитка на склоне,4.0,1489193717.0
Революционная 146,158.0,123.0,1.0,1280741941.0,https://vk.com/images/places/clubs.png,53.194001,50.180044,312.0,Метелица-С,4.0,1489282534.0
Комсомольский просп. 28,0.0,1.0,1.0,1280741941.0,https://vk.com/images/places/clubs.png,55.727019,37.579681,313.0,Арагоста,4.0,1322197698.0
наб. Обводного канала 181,0.0,2.0,1.0,1280741941.0,https://vk.com/images/places/clubs.png,59.909463,30.294332,314.0,Рокси,4.0,1343427393.0
Спиридоньевский пер. 2,1.0,1.0,1.0,1280741941.0,https://vk.com/images/places/clubs.png,55.761654,37.593381,315.0,Экипаж,4.0,1379715710.0
Б.Ордынка 40К1,5.0,1.0,1.0,1280741941.0,https://vk.com/images/places/clubs.png,55.736584,37.623905,316.0,Cotton Club,4.0,1347824369.0
Кировоградская 36а,9.0,1.0,1.0,1280741941.0,https://vk.com/images/places/clubs.png,55.603202,37.599067,317.0,Goodwin,4.0,1446486781.0
Гиляровского 4К2,313.0,1.0,1.0,1280741941.0,https://vk.com/images/places/clubs.png,55.77472,37.630751,318.0,Эгоистка,4.0,1488942280.0
Дмитровское ш. 27,0.0,1.0,1.0,1280741941.0,https://vk.com/images/places/clubs.png,55.826554,37.571318,319.0,Cadilluck,4.0,1401088585.0
Серпуховский Вал 17,5.0,1.0,1.0,1280741941.0,https://vk.com/images/places/clubs.png,55.710824,37.613207,320.0,Живой уголок,4.0,1377285220.0
Рождественка 6К9,40.0,1.0,1.0,1280741941.0,https://vk.com/images/places/clubs.png,55.760859,37.623834,321.0,Spirit,4.0,1432737363.0
Гарибальди 19,21.0,1.0,1.0,1280741941.0,https://vk.com/images/places/clubs.png,55.672686,37.549875,322.0,Оркестрион,4.0,1485599642.0
Пушечная 9К6,0.0,1.0,1.0,1280741941.0,https://vk.com/images/places/clubs.png,55.760824,37.624462,323.0,Арт`Эриа,4.0,
Трубниковский пер. 11,3.0,1.0,1.0,1280741941.0,https://vk.com/images/places/clubs.png,55.753215,37.586356,324.0,One More,4.0,1371390691.0
Стромынка 6,6.0,1.0,1.0,1280741941.0,https://vk.com/images/places/clubs.png,55.791253,37.687336,325.0,Бакинский дворик,4.0,1487459206.0
1-я Тверская-Ямская 9,5.0,1.0,1.0,1280741941.0,https://vk.com/images/places/clubs.png,55.772097,37.591916,326.0,Sungate,4.0,1368653912.0
Луганская 14,2.0,2.0,1.0,1280741941.0,https://vk.com/images/places/clubs.png,59.902149,30.384859,327.0,Fort MC,4.0,1430314395.0
Варшавское ш. 135а,7.0,1.0,1.0,1280741941.0,https://vk.com/images/places/clubs.png,55.59572,37.602651,328.0,Миг-21,4.0,1422793454.0
1-я Останкинская 53,65.0,1.0,1.0,1280741941.0,https://vk.com/images/places/clubs.png,55.824314,37.632053,329.0,Mezzo Forte,4.0,1487347279.0
Мясницкая 13,3.0,1.0,1.0,1280741941.0,https://vk.com/images/places/clubs.png,55.762449,37.632395,330.0,Starz,4.0,1355003759.0
наб. реки Мойки 82,0.0,2.0,1.0,1280741941.0,https://vk.com/images/places/clubs.png,59.929867,30.303462,331.0,Объект,4.0,1349528287.0
Милютинский пер. 6К1,2.0,1.0,1.0,1280741941.0,https://vk.com/images/places/clubs.png,55.762019,37.63222,332.0,База,4.0,1341426749.0
Олимпийский просп. 16К1,9.0,1.0,1.0,1280741941.0,https://vk.com/images/places/clubs.png,55.781203,37.626396,333.0,Анфилада,4.0,1414142729.0
Пушечная 9К6,0.0,1.0,1.0,1280741941.0,https://vk.com/images/places/clubs.png,55.760824,37.624462,334.0,Hungry Duck,4.0,
Свердловский просп. 51,2.0,158.0,1.0,1280741941.0,https://vk.com/images/places/clubs.png,55.168922,61.391276,335.0,BeenGo,4.0,1355540965.0
Правды 1,0.0,1.0,1.0,1280741941.0,https://vk.com/images/places/clubs.png,55.783149,37.575172,336.0,Jimi,4.0,1352232950.0
Октябрьская 53,0.0,78.0,1.0,1280741941.0,https://vk.com/images/places/clubs.png,52.601634,39.596225,337.0,Камин,4.0,1337109329.0
38-й км Ярославского ш. 19,3.0,78.0,1.0,1280741941.0,https://vk.com/images/places/clubs.png,52.388988,38.927415,338.0,Galaxy,4.0,1438689623.0
Софьи Перовской 25К26,0.0,87.0,1.0,1280741941.0,https://vk.com/images/places/clubs.png,68.970837,33.087746,339.0,Пивной дом,4.0,1352528579.0
Кирова 161,1.0,158.0,1.0,1280741941.0,https://vk.com/images/places/clubs.png,55.164305,61.401943,340.0,Deja-Vu,4.0,1348045983.0
Старостина 2,7.0,87.0,1.0,1280741941.0,https://vk.com/images/places/clubs.png,68.967013,33.103322,341.0,Айсберг,4.0,1489255744.0
Варшавское ш. 27,57.0,1.0,1.0,1280741941.0,https://vk.com/images/places/clubs.png,55.69352,37.622046,342.0,Нэо,4.0,1488591127.0
Бардина 21а,0.0,49.0,1.0,1280741941.0,https://vk.com/images/places/clubs.png,56.803041,60.556116,343.0,Родонит-95,4.0,1349807361.0
Варшавская 23,5.0,2.0,1.0,1280741941.0,https://vk.com/images/places/clubs.png,59.874241,30.311107,344.0,Столица,4.0,1375384673.0
просп. Ленина 35,40.0,158.0,1.0,1280741941.0,https://vk.com/images/places/clubs.png,55.160123,61.415728,345.0,Madflat,4.0,1471348838.0
ул. 8 Марта 43,0.0,49.0,1.0,1280741941.0,https://vk.com/images/places/clubs.png,56.825936,60.604889,346.0,Арлекино,4.0,1348386930.0
Зеленоградская 9,3.0,49.0,1.0,1280741941.0,https://vk.com/images/places/clubs.png,56.848755,60.612155,347.0,Водолей,4.0,1401136062.0
"Кронштадт, Макаровская 1",0.0,2.0,1.0,1280741941.0,https://vk.com/images/places/clubs.png,59.929249,30.333682,348.0,Центральная станция,4.0,
Моховая 37,1.0,2.0,1.0,1280741941.0,https://vk.com/images/places/clubs.png,59.940244,30.344237,349.0,Pin-Up,4.0,1338600975.0
Красноармейская 10,6.0,49.0,1.0,1280741941.0,https://vk.com/images/places/clubs.png,56.837179,60.615135,350.0,Чили,4.0,1457118075.0
ул. 50 лет ВЛКСМ 5,17.0,134.0,1.0,1280741941.0,https://vk.com/images/places/clubs.png,45.020112,41.924204,351.0,Новый Рим,4.0,1469816669.0
Сулимова 50,189.0,49.0,1.0,1280741941.0,https://vk.com/images/places/clubs.png,56.863336,60.630856,352.0,Park House,4.0,1489745410.0
1-я линия В.О. ,1.0,2.0,1.0,1280741941.0,https://vk.com/images/places/clubs.png,59.943724,30.288119,353.0,S-club,4.0,1317505317.0
ул. 8 Марта 212,0.0,49.0,1.0,1280741941.0,https://vk.com/images/places/clubs.png,56.78597,60.605195,354.0,Static,4.0,
просп. Октября 79К1,42.0,151.0,1.0,1280741941.0,https://vk.com/images/places/clubs.png,54.77305,56.021663,355.0,Правда,4.0,1480187326.0
Братьев Фонченко 12,0.0,151.0,1.0,1280741941.0,https://vk.com/images/places/clubs.png,54.794591,55.866192,356.0,Чаша,4.0,1411114935.0
Лесотехникума 49К1,0.0,151.0,1.0,1280741941.0,https://vk.com/images/places/clubs.png,54.751554,56.029541,357.0,Элемент,4.0,1370769611.0
Бутлерова 16,0.0,60.0,1.0,1280741941.0,https://vk.com/images/places/clubs.png,55.7865,49.130629,358.0,Коммуна,4.0,1354351249.0
Пушкина 28,3.0,60.0,1.0,1280741941.0,https://vk.com/images/places/clubs.png,55.791233,49.125,359.0,Fashion Club,4.0,1381153771.0
Новомарьинская 19,20.0,151.0,1.0,1280741941.0,https://vk.com/images/places/clubs.png,54.738001,55.971264,360.0,Колизео,4.0,1459531856.0
просп. Октября 91,32.0,151.0,1.0,1280741941.0,https://vk.com/images/places/clubs.png,54.777214,56.028921,361.0,Проспект,4.0,1486286937.0
Мира 14,5.0,151.0,1.0,1280741941.0,https://vk.com/images/places/clubs.png,54.813822,56.066767,362.0,Книжка,4.0,1466348709.0
Рихарда Зорге 17,17.0,151.0,1.0,1280741941.0,https://vk.com/images/places/clubs.png,54.75277,55.986593,363.0,Agava,4.0,1486485239.0
Балаклавский просп. 7,0.0,1.0,1.0,1280741941.0,https://vk.com/images/places/clubs.png,55.640772,37.603289,364.0,Дион,4.0,1323477549.0
Ахметова 311К1,3.0,151.0,1.0,1280741941.0,https://vk.com/images/places/clubs.png,54.791959,55.876747,365.0,Зодиак,4.0,1423478683.0
ЦПКиО им. Горького 3,17.0,1.0,1.0,1280741941.0,https://vk.com/images/places/clubs.png,55.744566,37.651897,366.0,Высоцкий,4.0,1377712170.0
наб. 62-й Армии 6,0.0,10.0,1.0,1280741941.0,https://vk.com/images/places/clubs.png,48.708898,44.514258,367.0,Golden Night,4.0,1385403262.0
Островского 5,2.0,10.0,1.0,1280741941.0,https://vk.com/images/places/clubs.png,48.709404,44.517882,368.0,Белая лошадь,4.0,1480198425.0
Б.Тульская ,1.0,146.0,1.0,1280741941.0,https://vk.com/images/places/clubs.png,54.120321,37.54665,369.0,Даяна,4.0,1367684479.0
Б.Садовая 64,0.0,119.0,1.0,1280741941.0,https://vk.com/images/places/clubs.png,47.227206,39.744943,370.0,Джотто,4.0,
Горького 141,59.0,95.0,1.0,1280741941.0,https://vk.com/images/places/clubs.png,56.31574,44.00595,371.0,Teatro,4.0,1474312831.0
Луначарского 85а,3.0,49.0,1.0,1280741941.0,https://vk.com/images/places/clubs.png,56.84705,60.619411,372.0,Ча-И,4.0,1402842949.0
наб. 62-й Армии 6,7.0,10.0,1.0,1280741941.0,https://vk.com/images/places/clubs.png,48.708948,44.514208,373.0,Пиранья,4.0,1472416173.0
Мира 5,3.0,10.0,1.0,1280741941.0,https://vk.com/images/places/clubs.png,48.707781,44.512367,374.0,Romeo,4.0,1422557981.0
Краснознаменская 8,12.0,10.0,1.0,1280741941.0,https://vk.com/images/places/clubs.png,48.704267,44.510992,375.0,Каир,4.0,1431781040.0
Коломенская 23К25,86.0,1.0,1.0,1280741941.0,https://vk.com/images/places/clubs.png,55.770861,37.631981,376.0,Сахар,4.0,1440283148.0
50-летия Октября 19,0.0,151.0,1.0,1280741941.0,https://vk.com/images/places/clubs.png,54.738051,55.971214,377.0,Pit stop,4.0,
Большакова 90б,185.0,49.0,1.0,1280741941.0,https://vk.com/images/places/clubs.png,56.817287,60.594223,378.0,Уралец,4.0,1487270861.0
Парижской Коммуны 26,27.0,60.0,1.0,1280741941.0,https://vk.com/images/places/clubs.png,55.780709,49.11025,379.0,Manhattan Club,4.0,1407848173.0
Соляной пер. 14,0.0,2.0,1.0,1280741941.0,https://vk.com/images/places/clubs.png,59.94321,30.341955,380.0,Муха-цокотуха,4.0,1333367707.0
Староваганьковский пер. 9,0.0,1.0,1.0,1280741941.0,https://vk.com/images/places/clubs.png,55.750905,37.606227,381.0,Алоэ,4.0,
просп. Энгельса ,0.0,2.0,1.0,1280741941.0,https://vk.com/images/places/clubs.png,60.046576,30.330421,382.0,Король Плющ,4.0,1375986712.0
Александровский парк 4,15.0,2.0,1.0,1280741941.0,https://vk.com/images/places/clubs.png,59.953754,30.317494,383.0,Parkking,4.0,1486144431.0
Тургеневская пл. 11,8.0,158.0,1.0,1280741941.0,https://vk.com/images/places/clubs.png,55.171247,61.451611,384.0,Панта Рэй,4.0,1476827566.0
Октябрьская 12,2.0,37.0,1.0,1280741941.0,https://vk.com/images/places/clubs.png,43.123636,131.889213,385.0,Ex Jumanji,4.0,1354664865.0
Свердловский просп. 51а,21.0,158.0,1.0,1280741941.0,https://vk.com/images/places/clubs.png,55.169725,61.391765,386.0,DJ Парк Inside,4.0,1404582313.0
Чистопрудный бульвар 93,1.0,158.0,1.0,1280741941.0,https://vk.com/images/places/clubs.png,55.131007,61.43342,387.0,Аврора,4.0,1398670745.0
Новая 57,9.0,158.0,1.0,1280741941.0,https://vk.com/images/places/clubs.png,55.161471,61.409147,388.0,Baden Baden,4.0,1483356046.0
Энтузиастов 11,210.0,158.0,1.0,1280741941.0,https://vk.com/images/places/clubs.png,55.155808,61.376314,389.0,Garage Underground,4.0,1489342238.0
наб. канала Грибоедова 26,0.0,2.0,1.0,1280741941.0,https://vk.com/images/places/clubs.png,59.936422,30.327474,390.0,10 ангелов,4.0,1370698646.0
Мусы Джалиля 11,86.0,99.0,1.0,1280741941.0,https://vk.com/images/places/clubs.png,54.862653,83.08996,391.0,Бункер,4.0,1489290123.0
Пушкина 29а,190.0,60.0,1.0,1280741941.0,https://vk.com/images/places/clubs.png,55.792281,49.124429,392.0,Luxor,4.0,1488734799.0
Угличская 12К2,1.0,1.0,1.0,1280741941.0,https://vk.com/images/places/clubs.png,55.896797,37.568965,393.0,Musik,4.0,1354187469.0
"Кузнецкий Мост, 17",7.0,1.0,1.0,1280741941.0,https://vk.com/images/places/clubs.png,55.784091,37.584757,394.0,Про100 бар,4.0,1405284602.0
Средняя 8а,4.0,1.0,1.0,1280741941.0,https://vk.com/images/places/clubs.png,55.603258,37.731164,395.0,99,4.0,1354256146.0
Объединения 27,5.0,99.0,1.0,1280741941.0,https://vk.com/images/places/clubs.png,55.09745,82.964905,396.0,Современник,4.0,1484458563.0
Полярные Зори 51К33,0.0,87.0,1.0,1280741941.0,https://vk.com/images/places/clubs.png,67.374576,32.503602,397.0,Лоцман,4.0,
Забелина 1,7.0,1.0,1.0,1280741941.0,https://vk.com/images/places/clubs.png,55.754466,37.637267,398.0,Ультра,4.0,1417468759.0
Ленинградская 75,0.0,158.0,1.0,1280741941.0,https://vk.com/images/places/clubs.png,55.158184,61.379018,399.0,Shury Mury,4.0,1323759714.0
Восточная ,1.0,49.0,1.0,1280741941.0,https://vk.com/images/places/clubs.png,56.837667,60.633443,400.0,Goa,4.0,1395468521.0
ул. 8 Марта 46,0.0,49.0,1.0,1280741941.0,https://vk.com/images/places/clubs.png,56.829143,60.599585,401.0,Каре-клуб,4.0,1345813254.0
Леонтьевская 17,4.0,99.0,1.0,1280741941.0,https://vk.com/images/places/clubs.png,54.860036,83.084678,402.0,Мадагаскар,4.0,1438982557.0
Челюскинцев 15,0.0,99.0,1.0,1280741941.0,https://vk.com/images/places/clubs.png,55.040162,82.90661,403.0,Diesel,4.0,1349237087.0
Оранжерейная 6,6.0,99.0,1.0,1280741941.0,https://vk.com/images/places/clubs.png,54.986588,82.815506,404.0,Ferrum,4.0,1442511228.0
Селезнева 46,0.0,99.0,1.0,1280741941.0,https://vk.com/images/places/clubs.png,55.045274,82.946714,405.0,Base,4.0,1349541584.0
Удальцова 75а,17.0,1.0,1.0,1280741941.0,https://vk.com/images/places/clubs.png,55.678062,37.495797,406.0,Folk Club,4.0,1489732220.0
Каменская 19,4.0,99.0,1.0,1280741941.0,https://vk.com/images/places/clubs.png,55.027057,82.928829,407.0,Арт-дача,4.0,1463586020.0
Советская ,2.0,99.0,1.0,1280741941.0,https://vk.com/images/places/clubs.png,55.033264,82.915512,408.0,Аквариум,4.0,1354505795.0
Московская 10,5.0,169.0,1.0,1280741941.0,https://vk.com/images/places/clubs.png,57.585008,39.834462,409.0,Авангард,4.0,1489224774.0
Свободы 34в,4.0,169.0,1.0,1280741941.0,https://vk.com/images/places/clubs.png,57.626598,39.874257,410.0,Комета-бум,4.0,1390327566.0
Гагарина 9,0.0,169.0,1.0,1280741941.0,https://vk.com/images/places/clubs.png,57.588617,39.851224,411.0,Партизан,4.0,1352399331.0
Собинова 15К14,0.0,169.0,1.0,1280741941.0,https://vk.com/images/places/clubs.png,57.629335,39.88298,412.0,Тарзан,4.0,1333998046.0
Новодеревенская 30,3.0,169.0,1.0,1280741941.0,https://vk.com/images/places/clubs.png,57.653917,39.964969,413.0,Айсберг,4.0,1442549474.0
Волжская наб. 2,3.0,169.0,1.0,1280741941.0,https://vk.com/images/places/clubs.png,57.632578,39.894451,414.0,Joy Party,4.0,1387290561.0
В. Красносельская 136,3.0,10.0,1.0,1280741941.0,https://vk.com/images/places/clubs.png,48.808543,44.767917,415.0,Белая акула,4.0,1340399661.0
В. Красносельская 47а,1.0,10.0,1.0,1280741941.0,https://vk.com/images/places/clubs.png,48.808524,44.767862,416.0,Какаду,4.0,1308079052.0
Мушникова ,3.0,151.0,1.0,1280741941.0,https://vk.com/images/places/clubs.png,54.780179,56.116561,417.0,Гольфстрим,4.0,1447435560.0
Богдана Хмельницкого 11,2.0,99.0,1.0,1280741941.0,https://vk.com/images/places/clubs.png,55.068406,82.939231,418.0,Ва-банк,4.0,1411732705.0
Толмачева 12,4.0,49.0,1.0,1280741941.0,https://vk.com/images/places/clubs.png,56.838258,60.61024,419.0,Салют,4.0,1476468738.0
Энгельса 1К1,2.0,99.0,1.0,1280741941.0,https://vk.com/images/places/clubs.png,54.871906,83.106457,420.0,Черная кошка,4.0,1458799727.0
просп. Карла Маркса 49,12.0,99.0,1.0,1280741941.0,https://vk.com/images/places/clubs.png,54.991098,82.908302,421.0,Щука,4.0,1476074400.0
Павильон Урицкого 15,1.0,99.0,1.0,1280741941.0,https://vk.com/images/places/clubs.png,55.0333,82.913203,422.0,Эгоист,4.0,1334413569.0
Широкая 15,18.0,99.0,1.0,1280741941.0,https://vk.com/images/places/clubs.png,54.846084,82.965795,423.0,Бумеранг,4.0,1474097670.0
Ватутина 17К1,55.0,99.0,1.0,1280741941.0,https://vk.com/images/places/clubs.png,54.986578,82.891243,424.0,Бегемот,4.0,1488396674.0
Советская ,1.0,99.0,1.0,1280741941.0,https://vk.com/images/places/clubs.png,55.033307,82.915437,425.0,Голодный койот,4.0,1355664999.0
Железнодорожная 46,0.0,99.0,1.0,1280741941.0,https://vk.com/images/places/clubs.png,55.083668,82.963019,426.0,Winners,4.0,1348338062.0
Красный просп. 52,1.0,99.0,1.0,1280741941.0,https://vk.com/images/places/clubs.png,55.035911,82.919585,427.0,Джага,4.0,1344609536.0
Добролюбова 2К3,1.0,99.0,1.0,1280741941.0,https://vk.com/images/places/clubs.png,55.002573,82.943642,428.0,Золотой галеон,4.0,1343543782.0
Вахтангова 5б,1.0,99.0,1.0,1280741941.0,https://vk.com/images/places/clubs.png,54.851557,83.046481,429.0,Капкан,4.0,1446475837.0
Богдана Хмельницкого 19,0.0,99.0,1.0,1280741941.0,https://vk.com/images/places/clubs.png,55.069932,82.94189,430.0,Отдых,4.0,1381021417.0
Красный просп. 167,2.0,99.0,1.0,1280741941.0,https://vk.com/images/places/clubs.png,55.064323,82.910279,431.0,Пульс,4.0,1345895925.0
Фрунзе 2,35.0,99.0,1.0,1280741941.0,https://vk.com/images/places/clubs.png,55.035756,82.915112,432.0,Труба,4.0,1482668118.0
Павильон Урицкого 16,15.0,99.0,1.0,1280741941.0,https://vk.com/images/places/clubs.png,55.031211,82.9146,433.0,Alpen Grotte,4.0,1444762016.0
просп. Победы 312,22.0,158.0,1.0,1280741941.0,https://vk.com/images/places/clubs.png,55.189969,61.341235,434.0,Мистер Икс,4.0,1485278869.0
Октябрьская 42,1.0,99.0,1.0,1280741941.0,https://vk.com/images/places/clubs.png,55.02427,82.920115,435.0,Амнезия,4.0,1377615928.0
Генерала Хазова 3,4.0,119.0,1.0,1280741941.0,https://vk.com/images/places/clubs.png,47.24186,39.700685,436.0,Paradox,4.0,1422804639.0
Школьная 2а,2.0,119.0,1.0,1280741941.0,https://vk.com/images/places/clubs.png,47.274133,39.734255,437.0,The Real McCoy,4.0,1382120682.0
просп. Космонавтов 15а,10.0,119.0,1.0,1280741941.0,https://vk.com/images/places/clubs.png,47.285767,39.715763,438.0,Авеню,4.0,1485441280.0
Коммунистический просп. 10,1.0,119.0,1.0,1280741941.0,https://vk.com/images/places/clubs.png,47.209047,39.64101,439.0,Подводный мир,4.0,1350332738.0
Шаумяна 71,14.0,119.0,1.0,1280741941.0,https://vk.com/images/places/clubs.png,47.221435,39.715336,440.0,Баба Люба,4.0,1489253789.0
Крепостной пер. 70,1.0,119.0,1.0,1280741941.0,https://vk.com/images/places/clubs.png,47.225664,39.737013,441.0,Relax,4.0,1377376509.0
просп. Шолохова 128,3.0,119.0,1.0,1280741941.0,https://vk.com/images/places/clubs.png,47.242129,39.765229,442.0,Люди,4.0,1395398037.0
просп. Сельмаш 3,11.0,119.0,1.0,1280741941.0,https://vk.com/images/places/clubs.png,47.249721,39.763324,443.0,Подземка,4.0,1488776932.0
Октябрьский б-р 32,3.0,110.0,1.0,1280741941.0,https://vk.com/images/places/clubs.png,57.973599,56.234815,444.0,Crazy Club,4.0,1487519113.0
Социалистическая 55,18.0,119.0,1.0,1280741941.0,https://vk.com/images/places/clubs.png,47.219146,39.708437,445.0,Cuba Libre,4.0,1472467734.0
Береговая 10,1.0,119.0,1.0,1280741941.0,https://vk.com/images/places/clubs.png,47.213216,39.711033,446.0,Титаник,4.0,1347716728.0
Левобережная 72,51.0,119.0,1.0,1280741941.0,https://vk.com/images/places/clubs.png,47.203917,39.76941,447.0,Embargo,4.0,1478355830.0
просп. Стачки 222,7.0,119.0,1.0,1280741941.0,https://vk.com/images/places/clubs.png,47.212616,39.617896,448.0,Золотая подкова,4.0,1473948592.0
Буденновский просп. ,6.0,119.0,1.0,1280741941.0,https://vk.com/images/places/clubs.png,47.228736,39.703847,449.0,Chester Pub,4.0,1463686132.0
Плехановская 9,7.0,42.0,1.0,1280741941.0,https://vk.com/images/places/clubs.png,51.662384,39.198517,450.0,Фламинго,4.0,1391940052.0
просп. Стачки 213,3.0,119.0,1.0,1280741941.0,https://vk.com/images/places/clubs.png,47.210914,39.63279,451.0,Флэш,4.0,1378043458.0
пл. Труда 2,3.0,169.0,1.0,1280741941.0,https://vk.com/images/places/clubs.png,57.628684,39.866388,452.0,Пятница,4.0,1449821613.0
Малышева 53,0.0,49.0,1.0,1280741941.0,https://vk.com/images/places/clubs.png,56.836416,60.615661,453.0,Parkking,4.0,1355592171.0
Москворечье 31К2,2.0,1.0,1.0,1280741941.0,https://vk.com/images/places/clubs.png,55.645857,37.659811,454.0,Шансон,4.0,1347551631.0
Арбат 20,46.0,1.0,1.0,1280741941.0,https://vk.com/images/places/clubs.png,55.75052,37.593273,455.0,Doolin House,4.0,1488906333.0
Земляной Вал 50,31.0,1.0,1.0,1280741941.0,https://vk.com/images/places/clubs.png,55.7513,37.654161,456.0,Концерт,4.0,1454149748.0
8-я линия В.О. 1К20,2.0,2.0,1.0,1280741941.0,https://vk.com/images/places/clubs.png,59.936197,30.28369,457.0,V-illa,4.0,1387991441.0
Дмитровское ш. 1К27,10.0,1.0,1.0,1280741941.0,https://vk.com/images/places/clubs.png,55.810683,37.578451,458.0,Молодая гвардия,4.0,1485714692.0
Рылеева 12,1.0,2.0,1.0,1280741941.0,https://vk.com/images/places/clubs.png,59.942723,30.358475,459.0,Jam Point,4.0,1351939765.0
Маяковского 51а,3.0,1.0,1.0,1280741941.0,https://vk.com/images/places/clubs.png,55.732154,37.620609,460.0,Bells,4.0,1354376162.0
Московский просп. 21,6.0,2.0,1.0,1280741941.0,https://vk.com/images/places/clubs.png,59.917001,30.316596,461.0,Havana Club,4.0,1386504486.0
Столешников пер. 7К1,1.0,1.0,1.0,1280741941.0,https://vk.com/images/places/clubs.png,55.763012,37.61441,462.0,Пластилин,4.0,1337691953.0
Большой просп. В.О. 80,1.0,2.0,1.0,1280741941.0,https://vk.com/images/places/clubs.png,59.930241,30.253435,463.0,Джамбала,4.0,1482929972.0
В.Масловка 21,6.0,1.0,1.0,1280741941.0,https://vk.com/images/places/clubs.png,55.795894,37.560529,464.0,Кактус,4.0,1431166960.0
Радищева 19К2,3.0,1.0,1.0,1280741941.0,https://vk.com/images/places/clubs.png,55.664228,37.660943,465.0,Zona,4.0,1416687404.0
Октябрьский 1,1.0,1.0,1.0,1280741941.0,https://vk.com/images/places/clubs.png,55.774836,37.609326,466.0,Эгоист,4.0,1342803492.0
Гороховая 22,10.0,2.0,1.0,1280741941.0,https://vk.com/images/places/clubs.png,59.931156,30.318383,467.0,Zoom,4.0,1449872439.0
Ленинский просп. 6,19.0,1.0,1.0,1280741941.0,https://vk.com/images/places/clubs.png,55.727176,37.606936,468.0,Точка,4.0,1366997514.0
Заставская 33,4.0,2.0,1.0,1280741941.0,https://vk.com/images/places/clubs.png,59.889467,30.315446,469.0,Триэль,4.0,1458341319.0
Страстной б-р 8а,18.0,1.0,1.0,1280741941.0,https://vk.com/images/places/clubs.png,55.766258,37.610767,470.0,VIP,4.0,1393026678.0
Уральская 8а,4.0,2.0,1.0,1280741941.0,https://vk.com/images/places/clubs.png,59.952281,30.263406,471.0,Классик,4.0,1485043805.0
Софийская 47,2.0,2.0,1.0,1280741941.0,https://vk.com/images/places/clubs.png,59.870913,30.405457,472.0,Help,4.0,1342879246.0
Котина 2,3.0,2.0,1.0,1280741941.0,https://vk.com/images/places/clubs.png,59.855927,30.209346,473.0,Cotin Club,4.0,1431002052.0
Маяковского 50,9.0,2.0,1.0,1280741941.0,https://vk.com/images/places/clubs.png,59.942858,30.354639,474.0,Красный лис,4.0,1482857427.0
3-я ул. Ямского поля 15,95.0,1.0,1.0,1280741941.0,https://vk.com/images/places/clubs.png,55.782529,37.579306,475.0,Golden Girls,4.0,1485406267.0
Куусинена 19а,8.0,1.0,1.0,1280741941.0,https://vk.com/images/places/clubs.png,55.788019,37.51123,476.0,Душа и тело,4.0,1460811356.0
Климентовский пер. 10К1,1.0,1.0,1.0,1280741941.0,https://vk.com/images/places/clubs.png,55.741039,37.627777,477.0,Апшу,4.0,1398891496.0
Новослободская 23,1.0,1.0,1.0,1280741941.0,https://vk.com/images/places/clubs.png,55.781474,37.598366,478.0,Мандат,4.0,1347167605.0
2-й Колобовский пер. 12,8.0,1.0,1.0,1280741941.0,https://vk.com/images/places/clubs.png,55.769266,37.616431,479.0,Элефант,4.0,1467642584.0
Строгинское ш. ,5.0,1.0,1.0,1280741941.0,https://vk.com/images/places/clubs.png,55.753559,37.609218,480.0,Beach Club,4.0,1466588216.0
Петровка 18К2,6.0,1.0,1.0,1280741968.0,https://vk.com/images/places/clubs.png,55.765979,37.615587,481.0,911 Aurora,4.0,1425237512.0
Спиридоновка 40К26,11.0,1.0,1.0,1280741968.0,https://vk.com/images/places/clubs.png,55.76328,37.58862,482.0,Эгоист Голд,4.0,1465546904.0
Каланчевская 15а,2.0,1.0,1.0,1280741968.0,https://vk.com/images/places/clubs.png,55.77233,37.651834,483.0,Бард-ретро,4.0,1280930737.0
наб. реки Фонтанки 11,197.0,2.0,1.0,1280741968.0,https://vk.com/images/places/clubs.png,59.936755,30.342853,484.0,Пурга,4.0,1488579001.0
Новорязанская 26,3.0,1.0,1.0,1280741968.0,https://vk.com/images/places/clubs.png,55.771763,37.66565,485.0,Контакт,4.0,1355375067.0
Баумана 58,1.0,60.0,1.0,1280741968.0,https://vk.com/images/places/clubs.png,55.789983,49.115366,486.0,Белая акула,4.0,1346818332.0
Мироновская 2,4.0,1.0,1.0,1280741968.0,https://vk.com/images/places/clubs.png,55.785382,37.734237,487.0,Atmosfera,4.0,1461173338.0
Чапаева 3,3.0,2.0,1.0,1280741968.0,https://vk.com/images/places/clubs.png,59.958494,30.333143,488.0,Абсурд,4.0,1395474107.0
Адоратского 12а,12.0,60.0,1.0,1280741968.0,https://vk.com/images/places/clubs.png,55.832389,49.14841,489.0,London,4.0,1477242768.0
просп. Мориса Тореза ,1.0,2.0,1.0,1280741968.0,https://vk.com/images/places/clubs.png,60.014828,30.340653,490.0,Relax,4.0,1338663815.0
Б.Лубянка 24,192.0,1.0,1.0,1280741968.0,https://vk.com/images/places/clubs.png,55.765301,37.63111,491.0,Скромное обаяние буржуазии,4.0,1450126141.0
Шишкова ,4.0,61.0,1.0,1280741968.0,https://vk.com/images/places/clubs.png,54.722586,20.462984,492.0,Универсал,4.0,1388621251.0
просп. Большевиков ,4.0,2.0,1.0,1280741968.0,https://vk.com/images/places/clubs.png,59.894874,30.491444,493.0,Пати-фон,4.0,1343111305.0
Карла Маркса 116,5.0,42.0,1.0,1280741968.0,https://vk.com/images/places/clubs.png,51.674237,39.193361,494.0,NC,4.0,1398732975.0
просп. Дзержинского ,0.0,99.0,1.0,1280741968.0,https://vk.com/images/places/clubs.png,55.058085,82.979948,495.0,Пейот,4.0,1292169890.0
Болотная наб. 3К1,476.0,1.0,1.0,1280741968.0,https://vk.com/images/places/clubs.png,55.739787,37.610125,496.0,Rolling Stone Bar & Tattoo,4.0,1489519898.0
Ленина 88,25.0,110.0,1.0,1280741968.0,https://vk.com/images/places/clubs.png,58.005677,56.209748,497.0,Wonder Hall,4.0,1483183063.0
Караванная 26,20.0,2.0,1.0,1280741968.0,https://vk.com/images/places/clubs.png,59.933952,30.342126,498.0,Трибунал-бар,4.0,1472385555.0
наб. канала Грибоедова 6,3.0,2.0,1.0,1280741968.0,https://vk.com/images/places/clubs.png,59.937423,30.327888,499.0,Embargo,4.0,1353103702.0
Соловьиный пр. 4а,1.0,1.0,1.0,1280741968.0,https://vk.com/images/places/clubs.png,55.616066,37.550199,500.0,Club 31,4.0,1293533394.0
Декабристов 4К1,5.0,1.0,1.0,1280741968.0,https://vk.com/images/places/clubs.png,55.86748,37.589985,501.0,Action,4.0,1432961854.0
Наметкина 9,3.0,1.0,1.0,1280741968.0,https://vk.com/images/places/clubs.png,55.664177,37.550899,502.0,Колизей,4.0,1479579210.0
Павловское ш. 13,0.0,1.0,1.0,1280741968.0,https://vk.com/images/places/clubs.png,55.740771,37.660449,503.0,Табуретка,4.0,
просп. Мира 26,9.0,1.0,1.0,1280741968.0,https://vk.com/images/places/clubs.png,55.777611,37.635027,504.0,Мадам Галифэ,4.0,1426441435.0
Космодамианская наб. 2,50.0,1.0,1.0,1280741968.0,https://vk.com/images/places/clubs.png,55.745595,37.638773,505.0,Fabrique,4.0,1477421493.0
наб. реки Фонтанки 11,2.0,2.0,1.0,1280741968.0,https://vk.com/images/places/clubs.png,59.947586,30.338883,506.0,Пурга 2,4.0,1385756748.0
Церковная 2К1,0.0,1.0,1.0,1280741968.0,https://vk.com/images/places/clubs.png,55.749121,37.662389,507.0,Сол,4.0,
Ленинградский просп. 24а,13.0,1.0,1.0,1280741968.0,https://vk.com/images/places/clubs.png,55.783251,37.574336,508.0,Ленинград,4.0,1405196510.0
Столешников пер. 11,211.0,1.0,1.0,1280741968.0,https://vk.com/images/places/clubs.png,55.763366,37.61583,509.0,Gogol`,4.0,1487881835.0
Блохина 15,292.0,2.0,1.0,1280741968.0,https://vk.com/images/places/clubs.png,59.952029,30.301199,510.0,Котельная «Камчатка»,4.0,1489701964.0
Кривоколенный пер. 10К5,40.0,1.0,1.0,1280741968.0,https://vk.com/images/places/clubs.png,55.761664,37.636015,511.0,Bilingua,4.0,1367941914.0
Складочная 1,39.0,1.0,1.0,1280741968.0,https://vk.com/images/places/clubs.png,55.798839,37.59321,512.0,Gaudi Club,4.0,1418046565.0
Гражданская 3,0.0,2.0,1.0,1280741968.0,https://vk.com/images/places/clubs.png,59.928717,30.314673,513.0,Пре,4.0,
М.Ордынка 37К1,19.0,1.0,1.0,1280741968.0,https://vk.com/images/places/clubs.png,55.732626,37.625774,514.0,Jet Set,4.0,1445918660.0
наб. Лейтенанта Шмидта ,3.0,2.0,1.0,1280741968.0,https://vk.com/images/places/clubs.png,59.933456,30.276365,515.0,Пуэр,4.0,1347263406.0
Новослободская 14К4,5.0,1.0,1.0,1280741968.0,https://vk.com/images/places/clubs.png,55.780841,37.59992,516.0,Loft Bar,4.0,1355751312.0
Правды 21К2,23.0,1.0,1.0,1280741968.0,https://vk.com/images/places/clubs.png,55.788312,37.580202,517.0,Братья Блюз,4.0,1472423494.0
Новосущевский пер. 6,5.0,1.0,1.0,1280741968.0,https://vk.com/images/places/clubs.png,55.790018,37.60549,518.0,Скворечник,4.0,1394789125.0
Академический просп. К110,159.0,1.0,1.0,1280741968.0,https://vk.com/images/places/clubs.png,55.765534,37.472584,519.0,Sexton,4.0,1488229843.0
наб. Северной Двины 44,10.0,1.0,1.0,1280741968.0,https://vk.com/images/places/clubs.png,55.722771,37.626762,520.0,Инкогнито,4.0,1446245683.0
Б.Овчинниковский пер. 24,1.0,1.0,1.0,1280741968.0,https://vk.com/images/places/clubs.png,55.74412,37.628765,521.0,Центр авторской песни,4.0,1315584707.0
Мясницкая К3,20.0,1.0,1.0,1280741968.0,https://vk.com/images/places/clubs.png,55.76019,37.629771,522.0,Петрович,4.0,1482490048.0
Мичуринский просп. 4К3,0.0,1.0,1.0,1280741968.0,https://vk.com/images/places/clubs.png,55.683798,37.468578,523.0,Сейшн,4.0,1391892578.0
Яузская 5,39.0,1.0,1.0,1280741968.0,https://vk.com/images/places/clubs.png,55.749344,37.645285,524.0,Культ,4.0,1439056846.0
Б.Садовая 8,180.0,1.0,1.0,1280741968.0,https://vk.com/images/places/clubs.png,55.765959,37.591503,525.0,Б2,4.0,1424039343.0
Варварка 14,0.0,1.0,1.0,1280741968.0,https://vk.com/images/places/clubs.png,55.752566,37.632125,526.0,Матрица,4.0,1340631527.0
Бажова 75а,2.0,49.0,1.0,1280741968.0,https://vk.com/images/places/clubs.png,56.844284,60.626045,527.0,Аэробус,4.0,1338095419.0
Поморская 125а,10.0,1.0,1.0,1280741968.0,https://vk.com/images/places/clubs.png,55.803889,37.743121,528.0,Локстрим,4.0,1353745461.0
ш. Энтузиастов 7а,66.0,1.0,1.0,1280741968.0,https://vk.com/images/places/clubs.png,55.749476,37.701161,529.0,Эра,4.0,1461357512.0
Бережковская наб. 8,22.0,1.0,1.0,1280741968.0,https://vk.com/images/places/clubs.png,55.739463,37.56627,530.0,Корабль «Викинг»,4.0,1468000227.0
Н.Арбат 21,397.0,1.0,1.0,1280741968.0,https://vk.com/images/places/clubs.png,55.751943,37.585157,531.0,Арбат,4.0,1488487010.0
Чертановская 32К3,6.0,1.0,1.0,1280741968.0,https://vk.com/images/places/clubs.png,55.619,37.591656,532.0,Шпилька,4.0,1465531001.0
Б.Овчинниковский пер. 24К4,0.0,1.0,1.0,1280741968.0,https://vk.com/images/places/clubs.png,55.743548,37.62996,533.0,Дом,4.0,1353077003.0
Ср.Тишинский пер. 5К7,1.0,1.0,1.0,1280741968.0,https://vk.com/images/places/clubs.png,55.769803,37.576609,534.0,Shake,4.0,1318886493.0
Маросейка 6К8,0.0,1.0,1.0,1280741968.0,https://vk.com/images/places/clubs.png,55.757126,37.635215,535.0,Byblos,4.0,
Троицкий просп. 8,85.0,1.0,1.0,1280741968.0,https://vk.com/images/places/clubs.png,55.810946,37.49877,536.0,CDK МАИ,4.0,1483693969.0
просп. Мира ,3.0,1.0,1.0,1280741968.0,https://vk.com/images/places/clubs.png,55.810461,37.63765,537.0,Солярис,4.0,1405859629.0
Рязанский просп. 39,16.0,1.0,1.0,1280741968.0,https://vk.com/images/places/clubs.png,55.728535,37.75788,538.0,DKDance,4.0,1442584221.0
Раушская наб. 4К5,29.0,1.0,1.0,1280741968.0,https://vk.com/images/places/clubs.png,55.748397,37.626852,539.0,Вермель,4.0,1428922757.0
Б.Никитская 22К12,3.0,1.0,1.0,1280741968.0,https://vk.com/images/places/clubs.png,55.757151,37.602463,540.0,Гнездо глухаря,4.0,1458589912.0
просп. Академика Сахарова 14,3.0,1.0,1.0,1280741968.0,https://vk.com/images/places/clubs.png,55.769135,37.643076,541.0,Красная шапочка,4.0,1425161806.0
просп. Андропова ,6.0,1.0,1.0,1280741968.0,https://vk.com/images/places/clubs.png,55.679752,37.6638,542.0,Пена,4.0,1402165012.0
Б.Бронная 18,14.0,1.0,1.0,1280741968.0,https://vk.com/images/places/clubs.png,55.762895,37.601196,543.0,Forte,4.0,1464375724.0
пл. Конституции 2,97.0,2.0,1.0,1280741968.0,https://vk.com/images/places/clubs.png,59.850635,30.304936,544.0,Jagger,4.0,1485120014.0
просп. Чумбарова-Лучинского 27,2.0,1.0,1.0,1280741968.0,https://vk.com/images/places/clubs.png,55.802659,37.535314,545.0,27Б,4.0,1385516277.0
микр. Дзержинского 12К50,22.0,1.0,1.0,1280741968.0,https://vk.com/images/places/clubs.png,55.769687,37.67873,546.0,Швайн,4.0,1414784522.0
Пресненский вал 6К1,740.0,1.0,1.0,1280741968.0,https://vk.com/images/places/clubs.png,55.764283,37.564392,547.0,Шестнадцать тонн,4.0,1489593929.0
Старосадский пер. 5К6,17.0,1.0,1.0,1280741968.0,https://vk.com/images/places/clubs.png,55.756943,37.640866,548.0,Art Garbage,4.0,1417911807.0
ш. Энтузиастов 6,0.0,1.0,1.0,1280741968.0,https://vk.com/images/places/clubs.png,55.772041,37.612955,549.0,Cats,4.0,1330120999.0
пл. Славы 16К3,4.0,1.0,1.0,1280741968.0,https://vk.com/images/places/clubs.png,55.633404,37.766783,550.0,Neolit,4.0,1454709064.0
наб. Обводного канала 118,182.0,2.0,1.0,1280741968.0,https://vk.com/images/places/clubs.png,59.907456,30.3056,551.0,Зал ожидания,4.0,1489338308.0
Победы 11К1,2.0,1.0,1.0,1280741968.0,https://vk.com/images/places/clubs.png,55.750276,37.664644,552.0,Три обезьяны New Age,4.0,1455741850.0
Пятницкая 4,0.0,1.0,1.0,1280741968.0,https://vk.com/images/places/clubs.png,55.744941,37.626897,553.0,Третий путь,4.0,1310154698.0
Староваганьковский пер. 19,271.0,1.0,1.0,1280741968.0,https://vk.com/images/places/clubs.png,55.751361,37.606882,554.0,Ритм & Блюз кафе,4.0,1489592996.0
Зубовский б-р 25,27.0,1.0,1.0,1280741968.0,https://vk.com/images/places/clubs.png,55.736483,37.590057,555.0,Распутин,4.0,1478966414.0
Б.Златоустинский пер. 7,1144.0,1.0,1.0,1280741968.0,https://vk.com/images/places/clubs.png,55.758686,37.632668,556.0,Пропаганда,4.0,1489101485.0
Каретный Ряд 3К1,5.0,1.0,1.0,1280741968.0,https://vk.com/images/places/clubs.png,55.770304,37.609308,557.0,Парижская жизнь,4.0,1457344506.0
Н.Арбат 21К1,65.0,1.0,1.0,1280741968.0,https://vk.com/images/places/clubs.png,55.751943,37.585057,558.0,Метелица,4.0,1477763900.0
Марксистская 38,68.0,1.0,1.0,1280741968.0,https://vk.com/images/places/clubs.png,55.733878,37.666944,559.0,Кристалл,4.0,1487701621.0
Лубянский пр. 25К1,354.0,1.0,1.0,1280741968.0,https://vk.com/images/places/clubs.png,55.754598,37.634811,560.0,Китайский летчик Джао Да,4.0,1489662416.0
просп. Мира 116а,29.0,1.0,1.0,1280741968.0,https://vk.com/images/places/clubs.png,55.809575,37.63809,561.0,Белый медведь,4.0,1485294045.0
Тверская 17,13.0,1.0,1.0,1280741968.0,https://vk.com/images/places/clubs.png,55.763503,37.606514,562.0,Night Flight,4.0,1470391585.0
Потаповский пер. 8К2,12.0,1.0,1.0,1280741968.0,https://vk.com/images/places/clubs.png,55.760444,37.641351,563.0,Проект ОГИ,4.0,1335204952.0
Садовая-Самотечная 4К2,40.0,1.0,1.0,1280741968.0,https://vk.com/images/places/clubs.png,55.772558,37.613225,564.0,B.B.King,4.0,1487963502.0
Красная Пресня 23К1б,8.0,1.0,1.0,1280741968.0,https://vk.com/images/places/clubs.png,55.761715,37.566701,565.0,Dolls,4.0,1436446600.0
Горьковское ш. 15,162.0,1.0,1.0,1280741968.0,https://vk.com/images/places/clubs.png,55.782443,37.579306,566.0,Golden Palace,4.0,1489315659.0
Бережковская наб. 2,5.0,1.0,1.0,1280741968.0,https://vk.com/images/places/clubs.png,55.741328,37.56715,567.0,Grand Prix,4.0,1466065692.0
2-я Тверская-Ямская 40К3,5.0,1.0,1.0,1280741968.0,https://vk.com/images/places/clubs.png,55.774229,37.590812,568.0,Platinum Gentlemen`s Club,4.0,1427330515.0
Беринга 38,33.0,2.0,1.0,1280741968.0,https://vk.com/images/places/clubs.png,59.946293,30.232415,569.0,Арктика,4.0,1464076942.0
Лиговский просп. 53,30.0,2.0,1.0,1280741968.0,https://vk.com/images/places/clubs.png,59.929136,30.359279,570.0,ГЭЗ-21,4.0,1483629079.0
Московский просп. 10,2.0,2.0,1.0,1280741968.0,https://vk.com/images/places/clubs.png,59.923964,30.320135,571.0,Пятница,4.0,1354459352.0
Бронницкая 4,3.0,2.0,1.0,1280741968.0,https://vk.com/images/places/clubs.png,59.916527,30.320746,572.0,Taxi,4.0,1417191425.0
Невский просп. 91,2.0,2.0,1.0,1280741968.0,https://vk.com/images/places/clubs.png,59.930241,30.365338,573.0,Jazz & Френия,4.0,1352566723.0
Соляной пер. 14,1.0,2.0,1.0,1280741968.0,https://vk.com/images/places/clubs.png,59.94321,30.341955,574.0,Neo,4.0,1456943220.0
М.Морская 5,0.0,2.0,1.0,1280741968.0,https://vk.com/images/places/clubs.png,59.936156,30.313775,575.0,Палитра,4.0,
Маяковского 16,49.0,2.0,1.0,1280741968.0,https://vk.com/images/places/clubs.png,59.936224,30.354738,576.0,Ливерпуль,4.0,1487545317.0
Чайковского 59,8.0,2.0,1.0,1280741968.0,https://vk.com/images/places/clubs.png,59.946184,30.360263,577.0,Чаплин,4.0,1488209437.0
Дубининская 69,7.0,1.0,1.0,1280741968.0,https://vk.com/images/places/clubs.png,55.714964,37.634427,578.0,Fashion O.Z.O. Club,4.0,1424003199.0
наб. реки Фонтанки ,9.0,2.0,1.0,1280741968.0,https://vk.com/images/places/clubs.png,59.922634,30.319466,579.0,Манхэттен,4.0,1452874582.0
ская 89,0.0,72.0,1.0,1280741968.0,https://vk.com/images/places/clubs.png,28.37857,1.694097,580.0,People,4.0,1330482262.0
Набережная 2а,8.0,2.0,1.0,1280741968.0,https://vk.com/images/places/clubs.png,59.877529,29.925164,581.0,Грибоедов,4.0,1438592682.0
Зубовский б-р 27К5,0.0,1.0,1.0,1280741968.0,https://vk.com/images/places/clubs.png,55.736969,37.588072,582.0,Сафари Лодж,4.0,1380956031.0
наб. Лейтенанта Шмидта ,4.0,2.0,1.0,1280741968.0,https://vk.com/images/places/clubs.png,59.933499,30.27629,583.0,Остров,4.0,1408151062.0
пер. Антоненко 2,0.0,2.0,1.0,1280741968.0,https://vk.com/images/places/clubs.png,59.931332,30.310999,584.0,Порт,4.0,
Загородный просп. 27,106.0,2.0,1.0,1280741968.0,https://vk.com/images/places/clubs.png,59.924172,30.336709,585.0,Филармония джазовой музыки,4.0,1489083591.0
Шпалерная 33,91.0,2.0,1.0,1280741968.0,https://vk.com/images/places/clubs.png,59.948812,30.356652,586.0,JFC,4.0,1489336875.0
Невский просп. 60,12.0,2.0,1.0,1280741968.0,https://vk.com/images/places/clubs.png,59.934556,30.339521,587.0,Golden Dolls,4.0,1487521118.0
Кирпичный пер. 8,32.0,2.0,1.0,1280741968.0,https://vk.com/images/places/clubs.png,59.934867,30.317252,588.0,Maximus,4.0,1479260646.0
наб. Обводного канала 181,5.0,2.0,1.0,1280741968.0,https://vk.com/images/places/clubs.png,59.909463,30.294232,589.0,Кабаре,4.0,1419340638.0
наб. канала Грибоедова 5,34.0,2.0,1.0,1280741968.0,https://vk.com/images/places/clubs.png,59.939703,30.327627,590.0,Конюшенный Двор,4.0,1466242058.0
наб. канала Грибоедова ,1.0,2.0,1.0,1280741968.0,https://vk.com/images/places/clubs.png,59.903756,30.268778,591.0,Монро,4.0,1448304820.0
7-я Красноармейская 5,2.0,2.0,1.0,1280741968.0,https://vk.com/images/places/clubs.png,59.911845,30.316156,592.0,Манилов,4.0,1391927947.0
просп. Красного Знамени 1К3,9.0,2.0,1.0,1280741968.0,https://vk.com/images/places/clubs.png,59.930791,30.335299,593.0,Rossi`s Club,4.0,1489099422.0
Садовая 94,2.0,2.0,1.0,1280741968.0,https://vk.com/images/places/clubs.png,59.918088,30.290922,594.0,Два му,4.0,1489524970.0
Пушечная 3,17.0,1.0,1.0,1280741968.0,https://vk.com/images/places/clubs.png,55.761234,37.621426,595.0,Karma Bar,4.0,1436707410.0
Доброслободская 2К38,66.0,1.0,1.0,1280741968.0,https://vk.com/images/places/clubs.png,55.769231,37.669603,596.0,Fresh,4.0,1455774368.0
Косыгина 15,19.0,1.0,1.0,1280741968.0,https://vk.com/images/places/clubs.png,55.706406,37.554421,597.0,911,4.0,1399929895.0
Измайловский вал 2,4.0,1.0,1.0,1280741968.0,https://vk.com/images/places/clubs.png,55.783625,37.719127,598.0,Голодная кошка,4.0,1390400387.0
Олимпийский просп. 16К1,14.0,1.0,1.0,1280741968.0,https://vk.com/images/places/clubs.png,55.781117,37.626396,599.0,Show Girls,4.0,1387973638.0
Большевистская 55,10.0,110.0,1.0,1280741968.0,https://vk.com/images/places/clubs.png,58.011428,56.249206,600.0,Black Bar,4.0,1489188680.0
Красноармейская 168,13.0,119.0,1.0,1280741968.0,https://vk.com/images/places/clubs.png,47.227586,39.712974,601.0,Фабрика,4.0,1393363780.0
Лубянский пр. 7К1,46.0,1.0,1.0,1280741968.0,https://vk.com/images/places/clubs.png,55.7586,37.630203,602.0,Туннель,4.0,1391181847.0
Литовский б-р 7,9.0,1.0,1.0,1280741968.0,https://vk.com/images/places/clubs.png,55.612833,37.536895,603.0,B-52,4.0,1412598855.0
Б.Академическая 41К1,11.0,1.0,1.0,1280741968.0,https://vk.com/images/places/clubs.png,55.833774,37.533032,604.0,Затмение,4.0,1400613793.0
Свердловский просп. 51,1.0,158.0,1.0,1280741968.0,https://vk.com/images/places/clubs.png,55.168922,61.391176,605.0,Ra,4.0,1371481445.0
Трамвайная 2,3.0,72.0,1.0,1280741968.0,https://vk.com/images/places/clubs.png,45.012631,39.052438,606.0,Lily,4.0,1387067128.0
Сходненская 2а,0.0,87.0,1.0,1280741968.0,https://vk.com/images/places/clubs.png,68.996249,33.09508,607.0,Indie Pub,4.0,1348667377.0
Героев Хасана 93,7.0,110.0,1.0,1280741968.0,https://vk.com/images/places/clubs.png,58.018374,56.289109,608.0,Адам и Ева,4.0,1463914368.0
Ленина 88,2.0,110.0,1.0,1280741968.0,https://vk.com/images/places/clubs.png,58.005677,56.209648,609.0,Shake,4.0,1456045581.0
Протопоповский пер. 9,9.0,1.0,1.0,1280741968.0,https://vk.com/images/places/clubs.png,55.780598,37.638081,610.0,Чай,4.0,1449230739.0
Крымский вал 9,24.0,1.0,1.0,1280741968.0,https://vk.com/images/places/clubs.png,55.731404,37.603406,611.0,Времена года,4.0,1460821677.0
Клочков пер. 2,6.0,2.0,1.0,1280741968.0,https://vk.com/images/places/clubs.png,59.918738,30.462231,612.0,Нева-да!,4.0,1417224514.0
Страстной б-р 5,9.0,1.0,1.0,1280741968.0,https://vk.com/images/places/clubs.png,55.767241,37.607691,613.0,Шоколад,4.0,1351861317.0
просп. Ударников ,7.0,2.0,1.0,1280741968.0,https://vk.com/images/places/clubs.png,59.952718,30.477206,614.0,Jazz Blues Френия,4.0,1407442971.0
Садовая К1,0.0,2.0,1.0,1280741968.0,https://vk.com/images/places/clubs.png,59.938121,30.336224,615.0,Revolution,4.0,1384121592.0
Бухарестская 31,6.0,2.0,1.0,1280741968.0,https://vk.com/images/places/clubs.png,59.865695,30.383853,616.0,Kapone,4.0,1446335201.0
Днепровская 30,7.0,2.0,1.0,1280741968.0,https://vk.com/images/places/clubs.png,59.854477,30.386799,617.0,Fireball,4.0,1455118027.0
Российская 98,0.0,151.0,1.0,1280741968.0,https://vk.com/images/places/clubs.png,54.738437,55.983161,618.0,Аквариум,4.0,
Докукина 10К12,2.0,1.0,1.0,1280741968.0,https://vk.com/images/places/clubs.png,55.839668,37.6524,619.0,Замок,4.0,1425673138.0
наб. реки Карповки 5К2,0.0,2.0,1.0,1280741968.0,https://vk.com/images/places/clubs.png,59.968421,30.316317,620.0,Орландина,4.0,
Луговая 14а,5.0,87.0,1.0,1280741968.0,https://vk.com/images/places/clubs.png,68.98092,33.104499,621.0,Irish Pub I.R.A.,4.0,1408392571.0
Павильон Урицкого 15,0.0,99.0,1.0,1280741968.0,https://vk.com/images/places/clubs.png,55.0333,82.913103,622.0,Лодка,4.0,1337867455.0
Фокина 4,2.0,1.0,1.0,1280741968.0,https://vk.com/images/places/clubs.png,55.774492,37.4675,623.0,Патриот,4.0,1488052641.0
Тверская 14,0.0,1.0,1.0,1280741968.0,https://vk.com/images/places/clubs.png,55.764298,37.606766,624.0,YE,4.0,
Пушкинская 9,44.0,57.0,1.0,1280741968.0,https://vk.com/images/places/clubs.png,52.272794,104.281406,625.0,Развлекательный центр «Акула»,4.0,1467714444.0
Ленина 46,21.0,57.0,1.0,1280741968.0,https://vk.com/images/places/clubs.png,52.277759,104.28287,626.0,Эстрада,4.0,1488690466.0
Литвинова 20,1.0,57.0,1.0,1280741968.0,https://vk.com/images/places/clubs.png,52.281065,104.294171,627.0,Живой звук,4.0,1391073449.0
Свердлова 28,1.0,57.0,1.0,1280741968.0,https://vk.com/images/places/clubs.png,52.285902,104.286374,628.0,Ливерпуль,4.0,1376663327.0
Комсомольская 4,2.0,57.0,1.0,1280741968.0,https://vk.com/images/places/clubs.png,52.249461,104.259801,629.0,Мегаполис,4.0,1477773486.0
Байкальская ,6.0,57.0,1.0,1280741968.0,https://vk.com/images/places/clubs.png,52.25584,104.334056,630.0,Super Maradona,4.0,1438485048.0
Карла Маркса 15,6.0,57.0,1.0,1280741968.0,https://vk.com/images/places/clubs.png,52.282189,104.284954,631.0,Стратосфера,4.0,1476953166.0
Морской вокзал 3,2.0,10.0,1.0,1280741968.0,https://vk.com/images/places/clubs.png,48.802318,44.601291,632.0,Кристалл,4.0,1483626359.0
просп. Сельмаш 1,1.0,119.0,1.0,1280741968.0,https://vk.com/images/places/clubs.png,47.244387,39.756991,633.0,Big Sound,4.0,1471502014.0
Книповича 43,48.0,87.0,1.0,1280741968.0,https://vk.com/images/places/clubs.png,68.959135,33.093136,634.0,Бригантина,4.0,1487517749.0
Максима Горького ,0.0,99.0,1.0,1280741968.0,https://vk.com/images/places/clubs.png,55.027098,82.920969,635.0,ArtDance Ателье,4.0,
Добровольского 30К2,18.0,119.0,1.0,1280741968.0,https://vk.com/images/places/clubs.png,47.294073,39.703847,636.0,Bavaria,4.0,1486812185.0
Семеновская 1,0.0,60.0,1.0,1280741968.0,https://vk.com/images/places/clubs.png,55.786812,49.122838,637.0,Джентельмен-клуб,4.0,1281038789.0
Братьев Касимовых 38,3.0,60.0,1.0,1280741968.0,https://vk.com/images/places/clubs.png,55.756341,49.200306,638.0,Провокация,4.0,1347991098.0
Землячки 40,5.0,10.0,1.0,1280741968.0,https://vk.com/images/places/clubs.png,48.753141,44.484348,639.0,Хижина,4.0,1417893147.0
Всеволода Сибирцева 10,3.0,1.0,1.0,1280741968.0,https://vk.com/images/places/clubs.png,55.839001,37.3788,640.0,Drive,4.0,1451616501.0
Новомарьинская 19,75.0,151.0,1.0,1280741968.0,https://vk.com/images/places/clubs.png,54.738001,55.971164,641.0,Огни Уфы,4.0,1488898487.0
Зеленский съезд 8,72.0,95.0,1.0,1280741968.0,https://vk.com/images/places/clubs.png,56.329098,43.996617,642.0,Лекс,4.0,1489279497.0
Нижневолжская наб. 21,1.0,95.0,1.0,1280741968.0,https://vk.com/images/places/clubs.png,56.324493,44.001928,643.0,Бизон,4.0,1440195644.0
Сахалинская 2К1,0.0,95.0,1.0,1280741968.0,https://vk.com/images/places/clubs.png,56.301918,44.037922,644.0,Wizard,4.0,1379510048.0
Родионова 4,3.0,95.0,1.0,1280741968.0,https://vk.com/images/places/clubs.png,56.321596,44.044353,645.0,Матрица,4.0,1352974520.0
Коминтерна 105,5.0,95.0,1.0,1280741968.0,https://vk.com/images/places/clubs.png,56.347799,43.870934,646.0,Голливуд,4.0,1460292715.0
Лейтенанта Шмидта 26а,0.0,10.0,1.0,1280741968.0,https://vk.com/images/places/clubs.png,48.763297,44.478851,647.0,Ника,4.0,1350496492.0
просп. Острякова 5,5.0,119.0,1.0,1280741968.0,https://vk.com/images/places/clubs.png,47.23376,39.763666,648.0,Ночной город,4.0,1445801254.0
просп. Наставников ,6.0,2.0,1.0,1280741968.0,https://vk.com/images/places/clubs.png,59.947766,30.48945,649.0,Домино,4.0,1397315536.0
Комарова 5,2.0,60.0,1.0,1280741968.0,https://vk.com/images/places/clubs.png,55.785139,49.115253,650.0,Art-Salon,4.0,1346923126.0
Железнодорожная 61,0.0,99.0,1.0,1280741968.0,https://vk.com/images/places/clubs.png,55.089743,82.952446,651.0,Локомотив,4.0,1453645733.0
1-я Морская 1,7.0,60.0,1.0,1280741968.0,https://vk.com/images/places/clubs.png,55.74485,49.195868,652.0,Эрмитаж,4.0,1421946140.0
Енисейская 2,0.0,112.0,1.0,1280741968.0,https://vk.com/images/places/clubs.png,61.758507,34.372947,653.0,Филин,4.0,1345352945.0
Б.Покровская 32,0.0,95.0,1.0,1280741968.0,https://vk.com/images/places/clubs.png,56.317772,43.996617,654.0,Hustler,4.0,
Петровка 21К1,0.0,1.0,1.0,1280741968.0,https://vk.com/images/places/clubs.png,55.76561,37.615569,655.0,Tabu,4.0,
Никифорова ,2.0,2.0,1.0,1280741968.0,https://vk.com/images/places/clubs.png,59.948017,30.314087,656.0,Pacha Bridge Lounge,4.0,1354224899.0
Громова 24,6.0,1.0,1.0,1280741968.0,https://vk.com/images/places/clubs.png,55.74298,37.492401,657.0,Cafenet,4.0,1342121746.0
Ферганская 16,1.0,49.0,1.0,1280741968.0,https://vk.com/images/places/clubs.png,56.77234,60.606691,658.0,Ямал,4.0,1484967247.0
Хиросимы 15а,2.0,10.0,1.0,1280741968.0,https://vk.com/images/places/clubs.png,48.725863,44.521287,659.0,Сова,4.0,1420131022.0
Рубцовская наб. 6,4.0,1.0,1.0,1280741968.0,https://vk.com/images/places/clubs.png,55.77993,37.70028,660.0,Нокаут.Gold,4.0,1420398424.0
Баумана ,1.0,60.0,1.0,1280741968.0,https://vk.com/images/places/clubs.png,55.792936,49.110378,661.0,Бухарест,4.0,1342785461.0
просп. Гагарина 27,0.0,95.0,1.0,1280741968.0,https://vk.com/images/places/clubs.png,56.293467,43.979432,662.0,Мотор,4.0,1329033599.0
Хабаровская 19,0.0,99.0,1.0,1280741968.0,https://vk.com/images/places/clubs.png,55.05729,82.904943,663.0,Пинта,4.0,
Гончарная 25,5.0,2.0,1.0,1280741968.0,https://vk.com/images/places/clubs.png,59.927847,30.3678,664.0,Усы,4.0,1475842325.0
Советская 78,1.0,169.0,1.0,1280741968.0,https://vk.com/images/places/clubs.png,57.641722,39.87494,665.0,Для своих,4.0,1393258490.0
просп. Ленина 32а,3.0,95.0,1.0,1280741968.0,https://vk.com/images/places/clubs.png,56.287717,43.930977,666.0,Утопия,4.0,1467276502.0
Шишкина 14а,0.0,95.0,1.0,1280741968.0,https://vk.com/images/places/clubs.png,56.235546,43.852231,667.0,Голливуд,4.0,1343590052.0
Ленинградский просп. 49а,28.0,169.0,1.0,1280741968.0,https://vk.com/images/places/clubs.png,57.679353,39.791262,668.0,Космос,4.0,1489503509.0
Токмаков пер. 11,1.0,1.0,1.0,1280741968.0,https://vk.com/images/places/clubs.png,55.767241,37.669738,669.0,Горбатая гора,4.0,1348924614.0
М.Палашевский пер. 6,13.0,1.0,1.0,1280741968.0,https://vk.com/images/places/clubs.png,55.765194,37.60266,670.0,Bogema,4.0,1408822333.0
Ниж.Сусальный пер. 5К5а,43.0,1.0,1.0,1280741968.0,https://vk.com/images/places/clubs.png,55.759765,37.664267,671.0,Discoteque,4.0,1351367804.0
Мантулинская 5К1,14.0,1.0,1.0,1280741968.0,https://vk.com/images/places/clubs.png,55.755799,37.552058,672.0,Плазма-холл,4.0,1408567016.0
Владикавказская ,17.0,87.0,1.0,1280741968.0,https://vk.com/images/places/clubs.png,68.943939,33.10626,673.0,Долина уюта,4.0,1488181344.0
Ленинградский просп. 37К6,0.0,1.0,1.0,1280741968.0,https://vk.com/images/places/clubs.png,55.793409,37.543048,674.0,Secret Service,4.0,1363959000.0
наб. реки Фонтанки ,75.0,2.0,1.0,1280741968.0,https://vk.com/images/places/clubs.png,59.922682,30.319431,675.0,Аничков мост,4.0,1489386573.0
Большевистская 131,8.0,99.0,1.0,1280741968.0,https://vk.com/images/places/clubs.png,54.999248,82.959794,676.0,Capriccio,4.0,1487822367.0
Часовитина 35,6.0,99.0,1.0,1280741968.0,https://vk.com/images/places/clubs.png,55.031794,82.926466,677.0,Блиндаж,4.0,1457105340.0
Ленина 10,1.0,99.0,1.0,1280741968.0,https://vk.com/images/places/clubs.png,55.029877,82.919419,678.0,Capriccio,4.0,1440221062.0
Нарымская 23,0.0,99.0,1.0,1280741968.0,https://vk.com/images/places/clubs.png,55.043644,82.904871,679.0,Shamrock,4.0,1354029757.0
Красный просп. 37,14.0,99.0,1.0,1280741968.0,https://vk.com/images/places/clubs.png,55.034198,82.918773,680.0,Old Irish Pub,4.0,1489393401.0
Ленина 20,9.0,99.0,1.0,1280741968.0,https://vk.com/images/places/clubs.png,55.029838,82.919388,681.0,Pub 501,4.0,1475942630.0
Пискунова 11,107.0,95.0,1.0,1280741968.0,https://vk.com/images/places/clubs.png,56.323692,44.00472,682.0,Рок-бар,4.0,1488010682.0
Почтовый пер. 60,12.0,112.0,1.0,1280741968.0,https://vk.com/images/places/clubs.png,61.801287,34.314997,683.0,Авиаретро,4.0,1483467904.0
просп. Науки 10К1,14.0,2.0,1.0,1280741968.0,https://vk.com/images/places/clubs.png,60.015246,30.390608,684.0,Lava,4.0,1465559722.0
Орджоникидзе 50,1.0,158.0,1.0,1280741968.0,https://vk.com/images/places/clubs.png,55.152084,61.406353,685.0,Светлое прошлое,4.0,1440490759.0
Разъезжая 12,0.0,2.0,1.0,1280741968.0,https://vk.com/images/places/clubs.png,59.924889,30.345935,686.0,Маша на ракете,4.0,
Петра Великого 15,3.0,1.0,1.0,1280741968.0,https://vk.com/images/places/clubs.png,55.747003,37.90807,687.0,Daja,4.0,1355502260.0
Батарейная 28,3.0,42.0,1.0,1280741968.0,https://vk.com/images/places/clubs.png,51.654445,39.123463,688.0,Бункер,4.0,1402828227.0
Литейный просп. 64К78,1.0,2.0,1.0,1280741968.0,https://vk.com/images/places/clubs.png,59.933077,30.348477,689.0,Филин Гуд,4.0,1345854093.0
просп. Ленина 9,1.0,158.0,1.0,1280741968.0,https://vk.com/images/places/clubs.png,55.15945,61.451602,690.0,Колизей,4.0,1480671152.0
Ст.Басманная 20К13,2.0,1.0,1.0,1280741968.0,https://vk.com/images/places/clubs.png,55.7664,37.667037,691.0,Play Cafe,4.0,1353488586.0
Петропавловская 185,0.0,110.0,1.0,1280741968.0,https://vk.com/images/places/clubs.png,58.00849,56.241127,692.0,Хрустальный лев,4.0,
Фрунзе ,5.0,99.0,1.0,1280741968.0,https://vk.com/images/places/clubs.png,55.037913,82.93562,693.0,Однажды в Америке,4.0,1424720448.0
1-ая Морская 15,2.0,99.0,1.0,1280741968.0,https://vk.com/images/places/clubs.png,55.026711,82.967232,694.0,Позитрон,4.0,1346145968.0
Якоби 35,64.0,57.0,1.0,1280741968.0,https://vk.com/images/places/clubs.png,52.222597,104.326578,695.0,Дикая лошадь,4.0,1489120744.0
Краснознаменский пер. 1б,0.0,119.0,1.0,1280741968.0,https://vk.com/images/places/clubs.png,47.193931,39.611563,696.0,Zeitnot,4.0,1353931362.0
Дмитровское ш. 27К1,1.0,1.0,1.0,1280741968.0,https://vk.com/images/places/clubs.png,55.826518,37.570797,697.0,Fases,4.0,1349248169.0
Симферопольский б-р 4,3.0,1.0,1.0,1280741968.0,https://vk.com/images/places/clubs.png,55.659419,37.607691,698.0,Революция,4.0,1352407243.0
Ленина 1,1.0,99.0,1.0,1280741968.0,https://vk.com/images/places/clubs.png,55.02986,82.919343,699.0,Fresh,4.0,1348778701.0
Нижневолжская наб. 1в,57.0,95.0,1.0,1280741968.0,https://vk.com/images/places/clubs.png,56.33149,44.007101,700.0,Indi Сlub,4.0,1476520800.0
Торжковская 11,2.0,2.0,1.0,1280741968.0,https://vk.com/images/places/clubs.png,59.990008,30.31541,701.0,Галерея хорошей музыки,4.0,1438506360.0
пересечение Университетской наб. и 1-й линии В.О. 142,4.0,99.0,1.0,1280741968.0,https://vk.com/images/places/clubs.png,54.988195,82.914734,702.0,City Club,4.0,1346526868.0
Советская 12,3.0,95.0,1.0,1280741968.0,https://vk.com/images/places/clubs.png,56.262152,43.74296,703.0,Neo,4.0,1351174616.0
Спортивная 4К4,6.0,1.0,1.0,1280741968.0,https://vk.com/images/places/clubs.png,55.739422,37.612739,704.0,Миллиардер,4.0,1352207542.0
Ленина 12,3.0,99.0,1.0,1280741968.0,https://vk.com/images/places/clubs.png,55.029838,82.919388,705.0,New York Times,4.0,1407242992.0
Сормовская 7,2.0,72.0,1.0,1280741968.0,https://vk.com/images/places/clubs.png,45.024259,39.064615,706.0,Baoli,4.0,1320845556.0
Кировоградская 15,13.0,1.0,1.0,1280741968.0,https://vk.com/images/places/clubs.png,55.609446,37.604708,707.0,Place,4.0,1415885651.0
Народный просп. ,0.0,2.0,1.0,1280741968.0,https://vk.com/images/places/clubs.png,59.942394,30.276127,708.0,Tema,4.0,1346581162.0
Лесной просп. 48а,202.0,2.0,1.0,1280741968.0,https://vk.com/images/places/clubs.png,59.981523,30.342485,709.0,Шоу-холл «Атмосфера»,4.0,1488071869.0
Бородинская 75а,0.0,42.0,1.0,1280741968.0,https://vk.com/images/places/clubs.png,51.663825,39.18189,710.0,Stalker,4.0,
Первомайская 43,0.0,151.0,1.0,1280741968.0,https://vk.com/images/places/clubs.png,54.815015,56.087006,711.0,Подземка,4.0,1355225874.0
Челюскинцев ,2.0,49.0,1.0,1280741968.0,https://vk.com/images/places/clubs.png,56.855374,60.60242,712.0,Дом 102,4.0,1418051623.0
Дружинниковская 15,24.0,1.0,1.0,1280741968.0,https://vk.com/images/places/clubs.png,55.759755,37.574696,713.0,Бархат,4.0,1454265862.0
просп. Пятилеток ,4.0,2.0,1.0,1280741968.0,https://vk.com/images/places/clubs.png,59.92263,30.458799,714.0,Cocoon,4.0,1347215130.0
Таганская пл. 20,3.0,1.0,1.0,1280741968.0,https://vk.com/images/places/clubs.png,55.76643,37.664087,715.0,Килтон,4.0,1389470339.0
Московская 1а,87.0,60.0,1.0,1280741968.0,https://vk.com/images/places/clubs.png,55.793908,49.103434,716.0,Joker,4.0,1476736147.0
Челюскинцев 102,5.0,49.0,1.0,1280741968.0,https://vk.com/images/places/clubs.png,56.855374,60.60232,717.0,Старая крепость,4.0,1462818618.0
Красных Командиров 14,1.0,49.0,1.0,1280741968.0,https://vk.com/images/places/clubs.png,56.893869,60.6196,718.0,Сфинкс,4.0,1352053662.0
Суханова 10,12.0,49.0,1.0,1280741968.0,https://vk.com/images/places/clubs.png,56.838008,60.597274,719.0,Солдат удачи,4.0,1282663352.0
Фрунзе 14,1.0,99.0,1.0,1280741968.0,https://vk.com/images/places/clubs.png,55.036979,82.927652,720.0,Джаз-клуб,4.0,1410353635.0
просп. Дзержинского ,2.0,99.0,1.0,1280741968.0,https://vk.com/images/places/clubs.png,55.058085,82.979848,721.0,Точка.ру,4.0,1399313882.0
Новочеркасский б-р 19а,10.0,1.0,1.0,1280741968.0,https://vk.com/images/places/clubs.png,55.64796,37.727769,722.0,City Club,4.0,1471501919.0
просп. Ленина 48,0.0,49.0,1.0,1280741968.0,https://vk.com/images/places/clubs.png,56.839676,60.619061,723.0,Студио,4.0,1340040332.0
Маковского 20,3.0,2.0,1.0,1280741968.0,https://vk.com/images/places/clubs.png,59.949483,30.360335,724.0,Mojo,4.0,1373539815.0
Дуси Ковальчук 260,5.0,99.0,1.0,1280741968.0,https://vk.com/images/places/clubs.png,55.057786,82.909704,725.0,Primus,4.0,1487869616.0
Гоголя 15,3.0,49.0,1.0,1280741968.0,https://vk.com/images/places/clubs.png,56.8336,60.61041,726.0,Трансотель,4.0,1453169660.0
Уборевича 1,3.0,57.0,1.0,1280741968.0,https://vk.com/images/places/clubs.png,52.27788,104.281523,727.0,Дом Актера,4.0,1487775463.0
наб. Гребного канала 108,62.0,95.0,1.0,1280741968.0,https://vk.com/images/places/clubs.png,56.329467,44.043797,728.0,Робинзон,4.0,1483224624.0
просп. Гагарина 27а,1.0,95.0,1.0,1280741968.0,https://vk.com/images/places/clubs.png,56.293802,43.980196,729.0,Бульвар,4.0,1391241581.0
Южная дорога 14,172.0,2.0,1.0,1280741968.0,https://vk.com/images/places/clubs.png,59.96857,30.232662,730.0,Royal Beach Club,4.0,1489323723.0
Победы 37,3.0,169.0,1.0,1280741968.0,https://vk.com/images/places/clubs.png,57.631653,39.870655,731.0,Montana,4.0,1436094584.0
Комсомольская ,1.0,57.0,1.0,1280741968.0,https://vk.com/images/places/clubs.png,52.250432,104.254223,732.0,Zima project,4.0,1342284718.0
Б.Златоустинский пер. 2К8,24.0,1.0,1.0,1280741968.0,https://vk.com/images/places/clubs.png,55.759968,37.631083,733.0,Point Rouge,4.0,1485623859.0
Водопьянова 17,20.0,78.0,1.0,1280741968.0,https://vk.com/images/places/clubs.png,52.590913,39.545132,734.0,Ego,4.0,1478887516.0
просп. Испытателей ,7.0,2.0,1.0,1280741968.0,https://vk.com/images/places/clubs.png,60.004586,30.285419,735.0,Сан-Франциско,4.0,1448591393.0
Кирова 12,15.0,112.0,1.0,1280741968.0,https://vk.com/images/places/clubs.png,61.790993,34.37239,736.0,FM Club,4.0,1471735296.0
Думская 9,109.0,2.0,1.0,1280741968.0,https://vk.com/images/places/clubs.png,59.932707,30.327331,737.0,Фидель,4.0,1478296275.0
трасса Ростов-Ольгинская ,0.0,119.0,1.0,1280741968.0,https://vk.com/images/places/clubs.png,47.227163,39.744918,738.0,Воздух,4.0,
просп. Ленина 26,0.0,112.0,1.0,1280741968.0,https://vk.com/images/places/clubs.png,61.788088,34.356185,739.0,Детская музыкальная школа,4.0,
просп. Ленина 27,44.0,112.0,1.0,1280741968.0,https://vk.com/images/places/clubs.png,61.787544,34.356975,740.0,Карелия,4.0,1487690169.0
просп. Карла Маркса 19,0.0,112.0,1.0,1280741968.0,https://vk.com/images/places/clubs.png,61.787382,34.379496,741.0,Velvet,4.0,
Фонтанная 31,0.0,151.0,1.0,1280741968.0,https://vk.com/images/places/clubs.png,54.713507,55.942234,742.0,Chester,4.0,
Маршала Катукова 8,9.0,1.0,1.0,1280741968.0,https://vk.com/images/places/clubs.png,55.809575,37.402327,743.0,Disco,4.0,1408138001.0
Первомайский просп. 2,3.0,112.0,1.0,1280741968.0,https://vk.com/images/places/clubs.png,61.793255,34.348491,744.0,Mambo,4.0,1442361462.0
Петровка 17К1,0.0,1.0,1.0,1280741968.0,https://vk.com/images/places/clubs.png,55.764491,37.616485,745.0,Армида,4.0,1324646420.0
г. Бердск ,14.0,99.0,1.0,1280741968.0,https://vk.com/images/places/clubs.png,54.763545,83.103443,746.0,Lobby Bar,4.0,1476167177.0
Комсомольская 4,4.0,57.0,1.0,1280741968.0,https://vk.com/images/places/clubs.png,52.249461,104.259801,747.0,Шамбала,4.0,1378998993.0
Партизанский пр-т 1,2.0,123.0,1.0,1280741968.0,https://vk.com/images/places/clubs.png,53.194389,50.090087,748.0,Аура,4.0,1373454574.0
Ново-Садовая 106,80.0,123.0,1.0,1280741968.0,https://vk.com/images/places/clubs.png,53.217111,50.148797,749.0,Звезда,4.0,1489331058.0
